Name,Address,Rating,User Ratings Total,Latitude,Longitude,Phone,Monday,Tuesday,Wednesday,Thursday,Friday,Saturday,Sunday,serves_vegetarian_food,url,Price_level,
"莫夏67印度餐廳大安店 ( Moksha 67 da-an branch Taipei, Indian restaurant )",106台灣台北市大安區仁愛路四段48巷14號,4.7,521,25.0369707,121.5469293,+886 2 2706 9878,星期一: 休息,"星期二: 11:30 – 14:30, 17:30 – 22:00","星期三: 11:30 – 14:30, 17:30 – 22:00","星期四: 11:30 – 14:30, 17:30 – 22:00","星期五: 11:30 – 14:30, 17:30 – 22:00","星期六: 11:30 – 14:30, 17:30 – 22:00","星期日: 11:30 – 14:30, 17:30 – 22:00",TRUE,https://maps.google.com/?cid=4753112619047560606,,
Snail 蝸牛義大利餐廳 民生店,105台灣台北市松山區民生東路四段56巷3弄10號,4.6,4210,25.0570927,121.552205,+886 2 2713 6648,"星期一: 11:30 – 14:30, 17:30 – 21:30","星期二: 11:30 – 14:30, 17:30 – 21:30","星期三: 11:30 – 14:30, 17:30 – 21:30","星期四: 11:30 – 14:30, 17:30 – 21:30","星期五: 11:30 – 14:30, 17:30 – 21:30","星期六: 11:30 – 14:30, 17:30 – 21:30","星期日: 11:30 – 14:30, 17:30 – 21:30",TRUE,https://maps.google.com/?cid=10240978350335078448,2,
王品牛排台北中山北店,104台灣台北市中山區中山北路二段33號2F,4.5,3775,25.0533809,121.5228424,+886 2 2536 1350,"星期一: 11:30 – 14:30, 17:30 – 22:00","星期二: 11:30 – 14:30, 17:30 – 22:00","星期三: 11:30 – 14:30, 17:30 – 22:00","星期四: 11:30 – 14:30, 17:30 – 22:00","星期五: 11:30 – 14:30, 17:30 – 22:00","星期六: 11:00 – 14:30, 17:00 – 22:00","星期日: 11:00 – 14:30, 17:00 – 22:00",,https://maps.google.com/?cid=6112238990394603020,3,
BeApe Restaurant,10491台灣台北市中山區中山北路二段72巷1號2樓,4.2,2084,25.057235,121.52247,,"星期一: 11:30 – 14:30, 18:00 – 22:00","星期二: 11:30 – 14:30, 18:00 – 22:00","星期三: 11:30 – 14:30, 18:00 – 22:00","星期四: 11:30 – 14:30, 18:00 – 22:00","星期五: 11:30 – 15:00, 18:00 – 22:30","星期六: 11:30 – 15:00, 18:00 – 22:30","星期日: 11:30 – 14:30, 18:00 – 22:00",,https://maps.google.com/?cid=1967108818887037358,3,
莫夏印度餐廳 Moksha Indian Restaurant,111台灣台北市士林區中山北路六段138號,4.5,724,25.1060031,121.5250717,+886 2 2834 7050,星期一: 休息,"星期二: 11:30 – 14:30, 17:30 – 21:30","星期三: 11:30 – 14:30, 17:30 – 21:30","星期四: 11:30 – 14:30, 17:30 – 21:30","星期五: 11:30 – 14:30, 17:30 – 21:30","星期六: 11:30 – 14:30, 17:30 – 21:30","星期日: 11:30 – 14:30, 17:30 – 21:30",TRUE,https://maps.google.com/?cid=1185457259055754521,2,
L' AGE 熟成餐廳,106台灣台北市大安區仁愛路三段143巷25號,4.6,457,25.0396075,121.5431817,+886 2 2711 3881,星期一: 休息,星期二: 休息,星期三: 17:30 – 23:30,星期四: 17:30 – 23:30,星期五: 17:30 – 23:30,星期六: 17:30 – 23:30,星期日: 17:30 – 23:30,,https://maps.google.com/?cid=7495741853525460316,2,
El Marques,106台灣台北市大安區延吉街259號,4.5,678,25.0344533,121.5567221,+886 933 800 260,"星期一: 12:00 – 14:30, 17:30 – 22:00","星期二: 12:00 – 14:00, 17:30 – 22:00","星期三: 12:00 – 14:00, 17:30 – 22:00","星期四: 12:00 – 14:00, 17:30 – 22:00","星期五: 12:00 – 14:00, 17:30 – 23:00","星期六: 12:00 – 14:00, 17:30 – 23:00","星期日: 12:00 – 14:00, 17:30 – 22:00",,https://maps.google.com/?cid=6249768876701097170,2,
Der Löwe Bavarian Restaurant 巴獅子德國餐廳,"B1, No. 19號敦化南路二段63巷大安區台北市台灣 106",4.4,789,25.0309783,121.5499473,+886 2 2325 6457,星期一: 休息,星期二: 休息,星期三: 17:30 – 22:00,星期四: 17:30 – 22:00,星期五: 17:30 – 22:00,"星期六: 12:00 – 15:00, 17:30 – 22:00","星期日: 12:00 – 15:00, 17:30 – 22:00",TRUE,https://maps.google.com/?cid=4899815815877259739,2,
Wenting Hotpot Restaurant,"No, No. 161西寧南路萬華區台北市台灣 108",4.6,44,25.0433662,121.5062436,+886 2 2731 2107,星期一: 11:30 – 00:00,星期二: 11:30 – 00:00,星期三: 11:30 – 00:00,星期四: 11:30 – 00:00,星期五: 11:30 – 00:00,星期六: 11:30 – 00:00,星期日: 11:30 – 00:00,,https://maps.google.com/?cid=13583619622462258827,,
巴雷巴雷印度餐廳,105台灣台北市松山區光復北路12號1樓,4.8,8869,25.0486993,121.5576634,+886 2 2570 7265,星期一: 休息,"星期二: 11:30 – 14:30, 17:30 – 21:45","星期三: 11:30 – 14:30, 17:30 – 21:45","星期四: 11:30 – 14:30, 17:30 – 21:45","星期五: 11:30 – 14:30, 17:30 – 21:45","星期六: 11:30 – 14:30, 17:30 – 21:45","星期日: 11:30 – 14:30, 17:30 – 21:45",,https://maps.google.com/?cid=13818335170560517095,2,
秘魯料理 Fiesta Restaurant & Bar,111台灣台北市士林區承德路四段189號,4.1,873,25.0880484,121.5223679,+886 2 2882 3286,星期一: 休息,"星期二: 11:30 – 14:30, 17:30 – 21:30","星期三: 11:30 – 14:30, 17:30 – 21:30","星期四: 11:30 – 14:30, 17:30 – 21:30","星期五: 11:30 – 14:30, 17:30 – 21:30","星期六: 11:30 – 14:30, 17:30 – 21:30","星期日: 11:30 – 14:30, 17:30 – 21:30",TRUE,https://maps.google.com/?cid=6184521980413489608,2,
番紅花城土耳其餐廳,10491台灣台北市中山區南京東路二段60號,4.3,4447,25.051831,121.529944,+886 2 2522 2939,星期一: 11:00 – 22:00,星期二: 11:00 – 22:00,星期三: 11:00 – 22:00,星期四: 11:00 – 22:00,星期五: 11:00 – 22:00,星期六: 11:00 – 22:00,星期日: 11:00 – 22:00,,https://maps.google.com/?cid=17614708431082809416,2,
田園海鮮餐廳,10491台灣台北市中山區八德路二段174巷5號,4.2,2959,25.0459523,121.5382132,+886 2 2781 5137,星期一: 休息,"星期二: 11:30 – 13:30, 17:30 – 21:30","星期三: 11:30 – 13:30, 17:30 – 21:30","星期四: 11:30 – 13:30, 17:30 – 21:30","星期五: 11:30 – 13:30, 17:30 – 21:30","星期六: 11:30 – 13:30, 17:30 – 21:30","星期日: 11:30 – 13:30, 17:30 – 21:30",,https://maps.google.com/?cid=15866766472480678011,2,
Leone Restaurant & Bar,104台灣台北市中山區林森北路353巷20號,4.7,1071,25.0570039,121.5262258,+886 2 2581 3109,星期一: 17:00 – 00:00,星期二: 17:00 – 00:00,星期三: 17:00 – 00:00,星期四: 17:00 – 00:00,星期五: 17:00 – 02:00,星期六: 17:00 – 02:00,星期日: 17:00 – 00:00,,https://maps.google.com/?cid=3849962212163728550,,
天天利美食坊,108台灣台北市萬華區漢中街32巷1號,4.2,5679,25.0450164,121.5075197,+886 2 2375 6299,星期一: 休息,星期二: 10:30 – 22:30,星期三: 10:30 – 22:30,星期四: 10:30 – 22:30,星期五: 10:30 – 22:30,星期六: 10:30 – 22:30,星期日: 10:30 – 22:30,,https://maps.google.com/?cid=5597686872059367178,1,
"馬友友印度清真餐廳 Mayur Indian Kitchen, Halal Restaurant (MIK-8, Zhongxiao E.rd)","台北市大安區忠孝東路四段146巷1號2樓 2F, No. 1, Ln, No. 146忠孝東路四段大安區台北市台灣 106",4.7,1777,25.0413076,121.5497081,+886 2 2711 2067,"星期一: 11:30 – 14:30, 17:00 – 23:00","星期二: 11:30 – 14:30, 17:00 – 23:00","星期三: 11:30 – 14:30, 17:00 – 23:00","星期四: 11:30 – 14:30, 17:00 – 23:00","星期五: 11:30 – 14:30, 17:00 – 23:00","星期六: 11:30 – 15:00, 17:00 – 23:00","星期日: 11:30 – 15:00, 17:00 – 23:00",TRUE,https://maps.google.com/?cid=10488701498776861036,,
Alma Spanish Restaurant,106台灣台北市大安區東豐街11號,4.4,467,25.0361501,121.5444388,+886 972 336 386,星期一: 休息,"星期二: 11:30 – 14:00, 17:30 – 22:00","星期三: 11:30 – 14:00, 17:30 – 22:00","星期四: 11:30 – 14:00, 17:30 – 22:00","星期五: 11:30 – 14:00, 17:30 – 22:00","星期六: 11:30 – 14:00, 17:30 – 22:00","星期日: 11:30 – 14:00, 17:30 – 22:00",,https://maps.google.com/?cid=4449827688503207614,,
馬友友印度廚房 - 大直 Mayur Indian Kitchen restaurant Dazhi (MiK-hi5),104台灣台北市中山區北安路630巷8號,4.6,1245,25.0826568,121.5496831,+886 2 2533 0698,星期一: 休息,"星期二: 11:30 – 15:00, 17:00 – 21:30","星期三: 11:30 – 15:00, 16:30 – 21:30","星期四: 11:30 – 15:00, 16:30 – 21:30","星期五: 11:30 – 15:00, 16:30 – 21:30","星期六: 11:30 – 15:00, 16:30 – 21:30","星期日: 11:30 – 15:00, 16:30 – 21:30",TRUE,https://maps.google.com/?cid=13759362224983939408,2,
スシロー壽司郎 台北中華路店,100台灣台北市中正區中華路一段41號1樓,4.2,5925,25.0449302,121.5094773,+886 2 2361 2306,星期一: 11:00 – 22:30,星期二: 11:00 – 22:30,星期三: 11:00 – 22:30,星期四: 11:00 – 22:30,星期五: 11:00 – 22:30,星期六: 11:00 – 22:30,星期日: 11:00 – 22:30,,https://maps.google.com/?cid=17475472368453978626,2,
TAJ 泰姬印度餐廳 (TAJ Indian Restaurant),106台灣台北市大安區市民大道四段48巷1號,4.6,2662,25.0447362,121.5458423,+886 2 8773 0175,"星期一: 11:30 – 14:30, 17:30 – 22:00",星期二: 休息,"星期三: 11:30 – 14:30, 17:30 – 22:00","星期四: 11:30 – 14:30, 17:30 – 22:00","星期五: 11:30 – 14:30, 17:30 – 22:00","星期六: 11:30 – 14:30, 17:30 – 22:00","星期日: 11:30 – 14:30, 17:30 – 22:00",TRUE,https://maps.google.com/?cid=10607116148556621781,2,
Malavida,106台灣台北市大安區光復南路280巷48號106079,4.5,467,25.0399655,121.5552257,+886 2 8773 9123,"星期一: 12:00 – 14:00, 18:00 – 22:00",星期二: 休息,"星期三: 12:00 – 14:00, 18:00 – 22:00","星期四: 12:00 – 14:00, 18:00 – 22:00","星期五: 12:00 – 14:00, 18:00 – 22:00","星期六: 12:00 – 14:00, 18:00 – 22:00","星期日: 12:00 – 14:00, 18:00 – 22:00",,https://maps.google.com/?cid=11367770302679363421,,
老朋友小酌熱炒,106台灣台北市大安區安和路二段36號1F,4.7,1909,25.0315441,121.5522477,+886 2 2325 2656,星期一: 17:00 – 00:00,星期二: 17:00 – 00:00,星期三: 17:00 – 00:00,星期四: 17:00 – 00:00,星期五: 17:00 – 00:00,星期六: 17:00 – 00:00,星期日: 17:00 – 00:00,FALSE,https://maps.google.com/?cid=18042055552861854600,2,
龍都酒樓,10491台灣台北市中山區中山北路一段105巷18-1號,4.2,6826,25.0503539,121.5244483,+886 2 2563 9293,"星期一: 11:30 – 14:30, 17:30 – 21:30","星期二: 11:30 – 14:30, 17:30 – 21:30","星期三: 11:30 – 14:30, 17:30 – 21:30","星期四: 11:30 – 14:30, 17:30 – 21:30","星期五: 11:30 – 14:30, 17:30 – 21:30","星期六: 11:20 – 12:50, 13:10 – 14:30, 17:30 – 19:10, 19:30 – 21:30","星期日: 11:20 – 12:50, 13:10 – 14:30, 17:30 – 19:10, 19:30 – 21:30",,https://maps.google.com/?cid=3858098876205658435,3,
喆園餐廳,104台灣台北市中山區建國北路一段80號,4.4,746,25.049464,121.5362676,+886 2 2506 6118,"星期一: 11:30 – 14:30, 17:30 – 22:00","星期二: 11:30 – 14:30, 17:30 – 22:00","星期三: 11:30 – 14:30, 17:30 – 22:00","星期四: 11:30 – 14:30, 17:30 – 22:00","星期五: 11:30 – 14:30, 17:30 – 22:00","星期六: 11:30 – 14:30, 17:30 – 22:00","星期日: 11:30 – 14:30, 17:30 – 22:00",,https://maps.google.com/?cid=9700170831001205117,3,
The Adlon Restaurant & Bar,"1F, No. 100安和路二段大安區台北市台灣 106",4.1,41,25.0285007,121.5499703,+886 2 2325 4433,星期一: 11:00 – 02:00,星期二: 11:00 – 02:00,星期三: 11:00 – 02:00,星期四: 11:00 – 02:00,星期五: 11:00 – 02:00,星期六: 09:00 – 02:00,星期日: 09:00 – 02:00,,https://maps.google.com/?cid=6031725988267021854,,
特奥蒂瓦坎,106台灣台北市大安區安和路一段21巷9號,4,960,25.0395286,121.5504677,+886 2 2708 1141,星期一: 11:30 – 21:30,星期二: 11:30 – 21:30,星期三: 11:30 – 21:30,星期四: 11:30 – 21:30,星期五: 11:30 – 23:00,星期六: 11:30 – 23:00,星期日: 11:30 – 22:00,TRUE,https://maps.google.com/?cid=4793534583044569807,2,
坦都餐廳有限公司,10491台灣台北市中山區合江街73巷10號,4.7,1425,25.0586505,121.5400965,+886 2 2509 9853,星期一: 休息,"星期二: 11:30 – 14:00, 17:30 – 21:30","星期三: 11:30 – 14:00, 17:30 – 21:30","星期四: 11:30 – 14:00, 17:30 – 21:30","星期五: 11:30 – 14:00, 17:30 – 21:30","星期六: 11:30 – 14:00, 17:30 – 21:30","星期日: 11:30 – 14:00, 17:30 – 21:30",TRUE,https://maps.google.com/?cid=4672681163749205917,,
Gustoso Italian Restaurant,10685台灣台北市大安區敦化南路1段331號2樓,4.2,393,25.034039,121.5492699,+886 2 7726 9099,星期一: 06:30 – 22:00,星期二: 06:30 – 22:00,星期三: 06:30 – 22:00,星期四: 06:30 – 22:00,星期五: 06:30 – 22:00,星期六: 06:30 – 22:00,星期日: 06:30 – 22:00,,https://maps.google.com/?cid=12935769464317724726,,
哦耶！旁遮普印度餐廳,106台灣台北市大安區延吉街121號,4.9,5305,25.0427409,121.5542369,+886 2 2775 2065,星期一: 休息,"星期二: 11:30 – 14:30, 17:30 – 21:30","星期三: 11:30 – 14:30, 17:30 – 21:30","星期四: 11:30 – 14:30, 17:30 – 21:30","星期五: 11:30 – 14:30, 17:30 – 21:30","星期六: 11:30 – 14:30, 17:30 – 21:30","星期日: 11:30 – 14:30, 17:30 – 21:30",,https://maps.google.com/?cid=497952784753788254,2,
ULV Restaurant and Bar,10691台灣台北市大安區敦化南路一段160巷18號一樓,4.5,426,25.0434408,121.5476453,+886 2 8771 0828,星期一: 休息,"星期二: 12:00 – 14:30, 18:00 – 22:00","星期三: 12:00 – 14:30, 18:00 – 22:00","星期四: 12:00 – 14:30, 18:00 – 22:00","星期五: 12:00 – 14:30, 18:00 – 22:00","星期六: 12:00 – 14:30, 18:00 – 22:00","星期日: 12:00 – 14:30, 18:00 – 22:00",,https://maps.google.com/?cid=15617989313500541572,,
Restaurant Page 頁小館,10463台灣台北市中山區北安路595巷20弄4號1樓,4.6,1569,25.08184,121.547774,+886 2 2532 8003,"星期一: 11:30 – 14:30, 17:30 – 21:00","星期二: 11:30 – 14:30, 17:30 – 21:30","星期三: 11:30 – 14:30, 17:30 – 21:30","星期四: 11:30 – 14:30, 17:30 – 21:30","星期五: 11:30 – 14:30, 17:30 – 21:30","星期六: 11:30 – 14:30, 17:30 – 21:30","星期日: 11:30 – 14:30, 17:30 – 21:30",TRUE,https://maps.google.com/?cid=15360146453359379430,2,
スシロー壽司郎 台北館前路店,100台灣台北市中正區館前路8號2樓,4.1,6692,25.0458267,121.5147169,+886 2 2361 2638,星期一: 11:00 – 22:30,星期二: 11:00 – 22:30,星期三: 11:00 – 22:30,星期四: 11:00 – 22:30,星期五: 11:00 – 22:30,星期六: 11:00 – 22:30,星期日: 11:00 – 22:30,,https://maps.google.com/?cid=7468931488262845109,2,
月之義大利餐廳,106台灣台北市大安區敦化南路二段265巷3號,4.4,900,25.0254867,121.5494205,+886 2 2733 9635,"星期一: 11:30 – 14:40, 17:45 – 22:00","星期二: 11:30 – 14:40, 17:45 – 22:00","星期三: 11:30 – 14:40, 17:45 – 22:00","星期四: 11:30 – 14:40, 17:45 – 22:00","星期五: 11:30 – 14:40, 17:45 – 22:00","星期六: 11:30 – 14:40, 17:45 – 22:00","星期日: 11:30 – 14:40, 17:45 – 22:00",TRUE,https://maps.google.com/?cid=1589845464812277502,2,
圓山大飯店-金龍餐廳,10491台灣台北市中山區中山北路四段1號,4.3,1489,25.0791209,121.5269322,+886 2 2886 1818,"星期一: 11:30 – 14:30, 18:00 – 22:00","星期二: 11:30 – 14:30, 18:00 – 22:00","星期三: 11:30 – 14:30, 18:00 – 22:00","星期四: 11:30 – 14:30, 18:00 – 22:00","星期五: 11:30 – 14:30, 18:00 – 22:00","星期六: 07:30 – 14:30, 18:00 – 22:00","星期日: 07:30 – 14:30, 18:00 – 22:00",,https://maps.google.com/?cid=17737925072873533850,3,
Halal Restaurant Kendedes,"No, No. 4光華路22巷蘆洲區新北市台灣 247",4.9,16,25.0836763,121.4694466,,星期一: 24 小時營業,星期二: 24 小時營業,星期三: 24 小時營業,星期四: 24 小時營業,星期五: 24 小時營業,星期六: 24 小時營業,星期日: 24 小時營業,,https://maps.google.com/?cid=11777796179480448852,,
籌學費餐廳,110台灣台北市信義區光復南路417巷37號,4.5,488,25.0369568,121.557991,+886 2 2345 1398,星期一: 休息,星期二: 17:30 – 00:00,星期三: 17:30 – 00:00,星期四: 17:30 – 00:00,星期五: 17:30 – 01:00,星期六: 17:30 – 01:00,星期日: 12:00 – 20:00,,https://maps.google.com/?cid=1140287619445676510,2,
Lulu Restaurant,105台灣台北市松山區民生東路三段113巷9號,4.3,1348,25.0585624,121.5462619,+886 2 2713 2250,星期一: 11:30 – 22:00,星期二: 11:30 – 22:00,星期三: 11:30 – 22:00,星期四: 11:30 – 22:00,星期五: 11:30 – 22:00,星期六: 11:30 – 22:00,星期日: 11:30 – 22:00,,https://maps.google.com/?cid=14968468533031037856,2,
花娘小館,105台灣台北市松山区敦化北路165巷9號1樓,4.3,679,25.0548637,121.5505647,+886 2 2718 4469,"星期一: 11:30 – 14:30, 17:30 – 22:00","星期二: 11:30 – 14:30, 17:30 – 22:00","星期三: 11:30 – 14:30, 17:30 – 22:00","星期四: 11:30 – 14:30, 17:30 – 22:00","星期五: 11:30 – 14:30, 17:30 – 22:00","星期六: 11:30 – 14:30, 17:30 – 22:00","星期日: 11:30 – 14:30, 17:30 – 22:00",,https://maps.google.com/?cid=17779556962795561145,2,
山海樓,100台灣台北市中正區仁愛路二段94號,4.1,1631,25.0379808,121.5314068,+886 2 2351 3345,"星期一: 12:00 – 14:30, 18:00 – 22:00","星期二: 12:00 – 14:30, 18:00 – 22:00","星期三: 12:00 – 14:30, 18:00 – 22:00","星期四: 12:00 – 14:30, 18:00 – 22:00","星期五: 12:00 – 14:30, 18:00 – 22:00","星期六: 12:00 – 14:30, 18:00 – 22:00","星期日: 12:00 – 14:30, 18:00 – 22:00",,https://maps.google.com/?cid=12882637900817705984,4,
Casanova Osteria & Bar,"1樓, No. 12號忠孝東路四段170巷6弄大安區台北市台灣 10688",4.8,249,25.0408028,121.5502044,+886 2 2771 2680,星期一: 休息,星期二: 休息,星期三: 17:30 – 23:00,星期四: 17:30 – 23:00,星期五: 17:30 – 23:00,星期六: 17:30 – 23:00,星期日: 17:30 – 23:00,TRUE,https://maps.google.com/?cid=16876390437707843788,,
くら寿司 藏壽司 台北館前店,100台灣台北市中正區館前路12號5樓,4.2,9170,25.0456068,121.5147159,+886 2 2331 6029,星期一: 11:00 – 22:00,星期二: 11:00 – 22:00,星期三: 11:00 – 22:00,星期四: 11:00 – 22:00,星期五: 11:00 – 22:00,星期六: 10:30 – 22:00,星期日: 10:30 – 22:00,,https://maps.google.com/?cid=14425020235779465369,2,
Orchid Restaurant 蘭,106台灣台北市大安區安和路二段83號,4.4,1217,25.0300871,121.5521719,+886 2 2378 3333,星期一: 休息,星期二: 休息,"星期三: 11:30 – 14:30, 18:00 – 22:00","星期四: 11:30 – 14:30, 18:00 – 22:00","星期五: 11:30 – 14:30, 18:00 – 22:00","星期六: 11:30 – 14:30, 18:00 – 22:00","星期日: 11:30 – 14:30, 18:00 – 22:00",,https://maps.google.com/?cid=8521452223721840553,3,
"馬友友印度蔬食餐廳 Mayur Indian Kitchen Vegetarian restaurant, MIK-3",100台灣台北市中正區濟南路二段64-2號,4.5,2747,25.0401204,121.5323807,+886 2 2321 2261,"星期一: 11:00 – 14:30, 16:00 – 21:30",星期二: 休息,"星期三: 11:00 – 14:30, 16:00 – 21:30","星期四: 11:00 – 14:30, 16:00 – 21:30","星期五: 11:00 – 14:30, 16:00 – 22:00","星期六: 11:00 – 15:00, 16:30 – 22:00","星期日: 11:00 – 15:00, 16:30 – 21:30",TRUE,https://maps.google.com/?cid=14955363474505136147,2,
大正浪漫日本料理,10491台灣台北市中山區復興南路一段30巷1號,4.6,259,25.046382,121.543488,+886 2 2772 0680,"星期一: 12:00 – 13:30, 18:00 – 21:30","星期二: 12:00 – 13:30, 18:00 – 21:30","星期三: 12:00 – 13:30, 18:00 – 21:30","星期四: 12:00 – 13:30, 18:00 – 21:30","星期五: 12:00 – 13:30, 18:00 – 21:30","星期六: 12:00 – 13:30, 18:00 – 21:30",星期日: 休息,TRUE,https://maps.google.com/?cid=2434551782548517715,,
非常泰 - 復興店,105台灣台北市松山區復興北路319號,4.2,1127,25.0591667,121.5444444,+886 2 2546 6745,"星期一: 11:30 – 14:30, 17:30 – 02:00","星期二: 11:30 – 14:30, 17:30 – 02:00","星期三: 11:30 – 14:30, 17:30 – 02:00","星期四: 11:30 – 14:30, 17:30 – 02:00","星期五: 11:30 – 14:30, 17:30 – 02:00","星期六: 11:30 – 15:00, 17:30 – 02:00","星期日: 11:30 – 15:00, 17:30 – 02:00",,https://maps.google.com/?cid=4635337713933245270,2,
映港式茶餐廳,108台灣台北市萬華區西寧南路76號2樓,4.2,684,25.0428932,121.5058551,+886 2 2331 7875,星期一: 12:00 – 21:30,星期二: 12:00 – 21:30,星期三: 12:00 – 21:30,星期四: 12:00 – 21:30,星期五: 12:00 – 21:30,星期六: 12:00 – 21:30,星期日: 12:00 – 21:30,,https://maps.google.com/?cid=18248974024708629748,2,
爭鮮迴轉壽司-林森店,10491台灣台北市中山區中山北路二段45巷35號1F,4,3388,25.0544897,121.524814,+886 2 2521 5117,星期一: 11:00 – 05:30,星期二: 11:00 – 05:30,星期三: 11:00 – 05:30,星期四: 11:00 – 05:30,星期五: 11:00 – 05:30,星期六: 11:00 – 05:30,星期日: 11:00 – 05:30,,https://maps.google.com/?cid=18417162595638962660,1,
饗食天堂 台北京站店,103台灣台北市大同區承德路一段1號京站時尚廣場4樓,4,4701,25.049308,121.5171935,+886 2 6617 1168,"星期一: 11:30 – 14:00, 14:30 – 16:30, 17:30 – 21:30","星期二: 11:30 – 14:00, 14:30 – 16:30, 17:30 – 21:30","星期三: 11:30 – 14:00, 14:30 – 16:30, 17:30 – 21:30","星期四: 11:30 – 14:00, 14:30 – 16:30, 17:30 – 21:30","星期五: 11:30 – 14:00, 14:30 – 16:30, 17:30 – 21:30","星期六: 11:30 – 14:00, 14:30 – 16:30, 17:30 – 21:30","星期日: 11:30 – 14:00, 14:30 – 16:30, 17:30 – 21:30",TRUE,https://maps.google.com/?cid=3070305487468032646,3,
星期五美式餐廳（美麗華）,10491台灣台北市中山區敬業三路22號2樓,4.2,2153,25.0836081,121.5572275,+886 2 2175 3358,星期一: 11:00 – 00:00,星期二: 11:00 – 00:00,星期三: 11:00 – 00:00,星期四: 11:00 – 00:00,星期五: 11:00 – 00:00,星期六: 11:00 – 00:00,星期日: 11:00 – 00:00,,https://maps.google.com/?cid=6242177921935044667,,
大亨餐酒館 Rich Restaurant,104台灣台北市中山區天津街63 號1 樓,4.8,598,25.0516192,121.5235351,+886 2 2542 3388,"星期一: 11:30 – 14:00, 17:30 – 22:00","星期二: 11:30 – 14:00, 17:30 – 22:00","星期三: 11:30 – 14:00, 17:30 – 22:00","星期四: 11:30 – 14:00, 17:30 – 22:00","星期五: 11:30 – 14:00, 17:30 – 22:00","星期六: 11:30 – 14:00, 17:30 – 22:00",星期日: 休息,TRUE,https://maps.google.com/?cid=12110323172369262295,,
小林海產,106台灣台北市大安區光復南路574-1號,4.2,2082,25.0340425,121.5571779,+886 2 2325 4930,星期一: 17:00 – 01:00,星期二: 17:00 – 01:00,星期三: 17:00 – 01:00,星期四: 17:00 – 01:00,星期五: 17:00 – 01:00,星期六: 17:00 – 01:00,星期日: 休息,FALSE,https://maps.google.com/?cid=4730455200188102284,2,
B612 Restaurant & Bar - B612餐酒館,106台灣台北市大安區敦化南路1段157號,4.7,621,25.0436496,121.5493018,+886 2 2777 5177,星期一: 休息,星期二: 休息,星期三: 18:00 – 00:00,星期四: 18:00 – 00:00,星期五: 18:00 – 02:00,星期六: 18:00 – 02:00,星期日: 18:00 – 00:00,TRUE,https://maps.google.com/?cid=6982880252533316140,2,
CLOSET衣櫥餐酒館 Restaurant & bar Bistro 異國料理 東區美食,106台灣台北市大安區忠孝東路四段101巷15號,4.3,1044,25.0425138,121.5481451,+886 2 2731 7919,星期一: 18:00 – 02:00,星期二: 18:00 – 02:00,星期三: 18:00 – 02:00,星期四: 18:00 – 02:00,星期五: 18:00 – 02:00,星期六: 18:00 – 02:00,星期日: 18:00 – 02:00,,https://maps.google.com/?cid=11317207201845607040,3,
紅舍私房菜,105台灣台北市松山區民生東路三段130巷5弄18號,4.4,511,25.0569888,121.5470483,+886 2 2545 5831,"星期一: 11:30 – 14:00, 17:30 – 21:30","星期二: 11:30 – 14:00, 17:30 – 21:30","星期三: 11:30 – 14:00, 17:30 – 21:30","星期四: 11:30 – 14:00, 17:30 – 21:30","星期五: 11:30 – 14:00, 17:30 – 21:30","星期六: 11:30 – 14:00, 17:30 – 21:30",星期日: 休息,TRUE,https://maps.google.com/?cid=8103019647470540320,2,
亞瑟蘭印度餐廳Family Indian Restaurant,111台灣台北市士林區德行西路114號,4.7,558,25.1037911,121.5206699,+886 2 2834 3303,"星期一: 11:30 – 14:30, 17:00 – 21:30",星期二: 休息,"星期三: 11:30 – 14:30, 17:00 – 21:30","星期四: 11:30 – 14:30, 17:00 – 21:30","星期五: 11:30 – 14:30, 17:00 – 21:30","星期六: 11:30 – 14:30, 17:00 – 21:30","星期日: 11:30 – 14:30, 17:00 – 21:30",,https://maps.google.com/?cid=14437019977575963875,2,
V&O BAR AND KITCHEN東地中海料理&酒吧,104台灣台北市中山區中山北路二段27巷1號,4.8,178,25.0532509,121.5231554,+886 2 2531 0595,星期一: 休息,星期二: 18:30 – 00:00,星期三: 18:30 – 00:00,星期四: 18:30 – 00:00,星期五: 18:30 – 02:00,星期六: 18:30 – 02:00,星期日: 休息,TRUE,https://maps.google.com/?cid=5495430239914503857,,
Namaste Indian Restaurant,106台灣台北市大安區安和路二段180號,4.4,382,25.0251882,121.550026,+886 2 2736 3733,"星期一: 11:00 – 14:30, 17:00 – 21:30","星期二: 11:00 – 14:30, 17:00 – 21:30","星期三: 11:00 – 14:30, 17:00 – 21:30","星期四: 11:00 – 14:30, 17:00 – 21:30","星期五: 11:00 – 14:30, 17:00 – 21:30","星期六: 11:00 – 14:30, 17:00 – 21:30","星期日: 11:00 – 14:30, 17:00 – 21:30",,https://maps.google.com/?cid=13556870216445173565,2,
梅子鰻蒲燒專賣店 Umeko Japanese Unagi Restaurant,10491台灣台北市中山區林森北路107巷8號,4.5,2248,25.0501842,121.5253369,+886 2 2521 2813,星期一: 休息,"星期二: 11:30 – 14:00, 17:30 – 00:00","星期三: 11:30 – 14:00, 17:30 – 00:00","星期四: 11:30 – 14:00, 17:30 – 00:00","星期五: 11:30 – 14:00, 17:30 – 00:00","星期六: 11:30 – 14:00, 17:30 – 00:00","星期日: 11:30 – 14:00, 17:30 – 22:00",TRUE,https://maps.google.com/?cid=11836474011548263307,2,
定食8-南門店,100台灣台北市中正區林森南路142號2樓,4,1896,25.0332444,121.5181789,+886 2 2356 3608,星期一: 11:00 – 21:30,星期二: 11:00 – 21:30,星期三: 11:00 – 21:30,星期四: 11:00 – 21:30,星期五: 11:00 – 21:30,星期六: 11:00 – 21:30,星期日: 11:00 – 21:30,,https://maps.google.com/?cid=6315682316351540976,2,
"J.W. Teres, the Bulgarian Restaurant",10669台灣台北市大安區四維路208巷4號,4.2,89,25.0262748,121.5477114,+886 2 2755 0660,星期一: 18:00 – 22:30,星期二: 18:00 – 22:30,星期三: 18:00 – 22:30,星期四: 18:00 – 22:30,星期五: 18:00 – 22:30,星期六: 18:00 – 22:30,星期日: 休息,TRUE,https://maps.google.com/?cid=17503268957195416087,,
享鮮餐廳(總店),104台灣台北市中山區市民大道三段209號2樓,4.5,403,25.04502,121.5433409,+886 2 8772 7855,"星期一: 11:30 – 14:30, 17:30 – 22:00","星期二: 11:30 – 14:30, 17:30 – 22:00","星期三: 11:30 – 14:30, 17:30 – 22:00","星期四: 11:30 – 14:30, 17:30 – 22:00","星期五: 11:30 – 14:30, 17:30 – 22:00","星期六: 11:30 – 14:30, 17:30 – 22:00","星期日: 11:30 – 14:30, 17:30 – 22:00",TRUE,https://maps.google.com/?cid=6099719781347215051,,
紫艷中餐廳,110台灣台北市信義區忠孝東路五段10號31樓,4.3,1301,25.040598,121.565735,+886 2 7703 8768,"星期一: 06:30 – 10:00, 12:00 – 14:30, 18:00 – 21:30","星期二: 06:30 – 10:00, 12:00 – 14:30, 18:00 – 21:30","星期三: 06:30 – 10:00, 12:00 – 14:30, 18:00 – 21:30","星期四: 06:30 – 10:00, 12:00 – 14:30, 18:00 – 21:30","星期五: 06:30 – 10:00, 12:00 – 14:30, 18:00 – 21:30","星期六: 06:30 – 10:30, 12:00 – 14:30, 18:00 – 21:30","星期日: 06:30 – 10:30, 12:00 – 14:30, 18:00 – 21:30",TRUE,https://maps.google.com/?cid=7783588919071313114,3,
泰集 微風信義店,110台灣台北市信義區忠孝東路五段68號4樓,4.4,2377,25.0405044,121.5668964,+886 2 2722 8618,"星期一: 11:30 – 14:30, 17:30 – 21:30","星期二: 11:30 – 14:30, 17:30 – 21:30","星期三: 11:30 – 14:30, 17:30 – 21:30","星期四: 11:30 – 14:30, 17:30 – 21:30","星期五: 11:30 – 14:30, 17:30 – 21:30","星期六: 11:30 – 14:30, 17:30 – 21:30","星期日: 11:30 – 14:30, 17:30 – 21:30",,https://maps.google.com/?cid=5862600344220652152,3,
KiKi餐廳(信義誠品店),110台灣台北市信義區松高路11號誠品生活商場 4樓,4.2,2241,25.039664,121.5657554,+886 2 2722 0388,"星期一: 11:00 – 15:00, 17:15 – 22:00","星期二: 11:00 – 15:00, 17:15 – 22:00","星期三: 11:00 – 15:00, 17:15 – 22:00","星期四: 11:00 – 15:00, 17:15 – 22:00","星期五: 11:00 – 15:00, 17:15 – 23:00","星期六: 11:00 – 15:00, 17:15 – 23:00","星期日: 11:00 – 15:00, 17:15 – 22:00",TRUE,https://maps.google.com/?cid=15238668193543725633,2,
崔妮傑恩 微風信義店,"號4樓, No. 68忠孝東路五段信義區台北市台灣 110",4.1,444,25.040767,121.566845,+886 2 6623 5508,星期一: 11:00 – 21:30,星期二: 11:00 – 21:30,星期三: 11:00 – 21:30,星期四: 11:00 – 22:00,星期五: 11:00 – 22:00,星期六: 11:00 – 22:00,星期日: 11:00 – 21:30,,https://maps.google.com/?cid=9258862127927459762,,
吉豚屋 誠品信義店,"號 B2 樓, No. 11松高路信義區台北市台灣 110",4.7,2439,25.0397198,121.5658738,+886 2 2720 5166,星期一: 11:00 – 22:00,星期二: 11:00 – 22:00,星期三: 11:00 – 22:00,星期四: 11:00 – 22:00,星期五: 11:00 – 22:00,星期六: 11:00 – 22:00,星期日: 11:00 – 22:00,,https://maps.google.com/?cid=15064248153233481459,,
1010 Hunan Cuisine Eslite Xinyi Restaurant,110台灣台北市信義區松高路11號6樓,4.2,1073,25.0397197,121.5658739,+886 2 2722 0583,"星期一: 11:00 – 15:00, 17:00 – 21:30","星期二: 11:00 – 15:00, 17:00 – 21:30","星期三: 11:00 – 15:00, 17:00 – 21:30","星期四: 11:00 – 15:00, 17:00 – 21:30","星期五: 11:00 – 15:00, 17:00 – 22:00",星期六: 11:00 – 22:00,星期日: 11:00 – 21:30,,https://maps.google.com/?cid=5388579362581733461,2,
靜園粵菜海鮮餐廳,106台灣台北市信義區松仁路28號,3.9,151,25.0396219,121.567641,+886 2 2705 8068,星期一: 11:20 – 21:30,星期二: 11:20 – 21:30,星期三: 11:20 – 21:30,星期四: 11:20 – 21:30,星期五: 11:20 – 21:30,星期六: 11:20 – 21:30,星期日: 11:20 – 21:30,,https://maps.google.com/?cid=14260527815691031435,,
清真中國牛肉麵食館,110台灣台北市信義區松高路12號新光三越B2,4,513,25.0377275,121.5669572,+886 2 2722 2646,星期一: 11:30 – 21:30,星期二: 11:30 – 21:30,星期三: 11:30 – 21:30,星期四: 11:30 – 21:30,星期五: 11:30 – 22:00,星期六: 11:30 – 21:30,星期日: 11:30 – 21:30,,https://maps.google.com/?cid=11304083719847439761,2,
粵亮廣式料理-台北六福萬怡酒店,115台灣台北市南港區忠孝東路七段359號,4.2,1433,25.0524855,121.6065925,+886 2 6615 6528,"星期一: 11:30 – 14:00, 17:30 – 21:30","星期二: 11:30 – 14:00, 17:30 – 21:30","星期三: 11:30 – 14:00, 17:30 – 21:30","星期四: 11:30 – 14:00, 17:30 – 21:30","星期五: 11:30 – 14:00, 17:30 – 21:30","星期六: 11:30 – 14:00, 17:30 – 21:30","星期日: 11:30 – 14:00, 17:30 – 21:30",,https://maps.google.com/?cid=5304096667606712737,3,
太和殿鴛鴦麻辣火鍋,106台灣台北市大安區信義路四段315號,4.4,4915,25.0332528,121.5560174,+886 2 2705 0909,星期一: 12:00 – 00:00,星期二: 12:00 – 00:00,星期三: 12:00 – 00:00,星期四: 12:00 – 00:00,星期五: 12:00 – 00:00,星期六: 12:00 – 00:00,星期日: 12:00 – 00:00,FALSE,https://maps.google.com/?cid=3547852647789781249,3,
赤門居酒屋,110台灣台北市信義區松隆路８號,4.2,590,25.0431471,121.5665582,+886 2 2767 6817,星期一: 18:00 – 00:00,星期二: 18:00 – 00:00,星期三: 18:00 – 00:00,星期四: 18:00 – 00:00,星期五: 18:00 – 00:00,星期六: 18:00 – 00:00,星期日: 18:00 – 00:00,,https://maps.google.com/?cid=2231209328904500598,2,
Echo Bistro bar & restaurant,234台灣新北市永和區永貞路291號,4.5,297,25.0054399,121.5109041,+886 2 2929 9191,星期一: 18:00 – 02:00,星期二: 18:00 – 02:00,星期三: 18:00 – 02:00,星期四: 18:00 – 02:00,星期五: 18:00 – 02:00,星期六: 18:00 – 02:00,星期日: 18:00 – 02:00,,https://maps.google.com/?cid=16299973350008814880,2,
阿輝牛肉城,231台灣新北市新店區中興路三段225號,4.3,2273,24.9830597,121.5430698,+886 2 8665 0595,星期一: 休息,星期二: 休息,"星期三: 11:30 – 14:00, 17:00 – 22:00","星期四: 11:30 – 14:00, 17:00 – 22:00","星期五: 11:30 – 14:00, 17:00 – 22:00","星期六: 11:30 – 14:00, 17:00 – 22:00","星期日: 11:30 – 14:00, 17:00 – 21:00",FALSE,https://maps.google.com/?cid=17784600101090889227,2,
半島牛肉麵,110台灣台北市信義區忠孝東路五段215巷23號,4.7,6175,25.0419245,121.5702911,+886 2 2767 5085,星期一: 10:30 – 21:30,星期二: 10:30 – 21:30,星期三: 10:30 – 21:30,星期四: 10:30 – 21:30,星期五: 10:30 – 21:30,星期六: 10:30 – 21:30,星期日: 10:30 – 21:30,,https://maps.google.com/?cid=16673720678028578043,2,
Snail 蝸牛義大利餐廳 敦南店,106台灣台北市大安區敦化南路二段81巷49號,4.6,3448,25.030032,121.5506455,+886 2 2709 3536,"星期一: 11:30 – 14:30, 17:30 – 21:30","星期二: 11:30 – 14:30, 17:30 – 21:30","星期三: 11:30 – 14:30, 17:30 – 21:30","星期四: 11:30 – 14:30, 17:30 – 21:30","星期五: 11:30 – 14:30, 17:30 – 21:30","星期六: 11:30 – 14:30, 17:30 – 21:30","星期日: 11:30 – 14:30, 17:30 – 21:30",,https://maps.google.com/?cid=14034424167322866372,2,
貓空龍門客棧,116台灣台北市文山區指南路三段38巷22之2號,3.9,2836,24.9672139,121.5868528,+886 2 2939 8865,星期一: 11:00 – 22:00,星期二: 休息,星期三: 11:00 – 22:00,星期四: 11:00 – 22:00,星期五: 11:00 – 22:00,星期六: 11:00 – 22:00,星期日: 11:00 – 22:00,,https://maps.google.com/?cid=8720050366707161986,2,
H&W Restaurant and Bar,231台灣新北市新店區北新路三段65巷5號,4.3,495,24.9809894,121.5412765,+886 2 8665 4388,星期一: 18:00 – 01:00,星期二: 18:00 – 01:00,星期三: 18:00 – 01:00,星期四: 18:00 – 01:00,星期五: 18:00 – 02:00,星期六: 18:00 – 02:00,星期日: 18:00 – 01:00,FALSE,https://maps.google.com/?cid=7625860551451528881,2,
俄羅斯城堡,106台灣台北市大安區羅斯福路三段333巷14號,4.2,1508,25.017511,121.5325407,+886 2 8369 5899,"星期一: 12:00 – 15:00, 17:00 – 21:30","星期二: 12:00 – 15:00, 17:00 – 21:30","星期三: 12:00 – 15:00, 17:00 – 21:30","星期四: 12:00 – 15:00, 17:00 – 21:30","星期五: 12:00 – 15:00, 17:00 – 21:30","星期六: 12:00 – 15:00, 17:00 – 21:30","星期日: 12:00 – 15:00, 17:00 – 21:30",,https://maps.google.com/?cid=3828072599997231371,2,
首爾之家,100台灣台北市中正區羅斯福路三段244巷10弄14號,4,938,25.0159805,121.5313803,+886 2 2368 1900,星期一: 17:00 – 21:30,星期二: 17:00 – 21:30,星期三: 17:00 – 21:30,星期四: 17:00 – 21:30,星期五: 17:00 – 21:30,"星期六: 11:00 – 14:30, 17:00 – 21:30","星期日: 11:00 – 14:30, 17:00 – 21:30",,https://maps.google.com/?cid=8359772196309480364,2,
Focoso Taipei,106台灣台北市大安區通化街170巷11號,4.5,416,25.028212,121.5527575,+886 2 2732 9022,星期一: 休息,星期二: 休息,星期三: 18:00 – 22:30,星期四: 18:00 – 22:30,星期五: 18:00 – 22:30,星期六: 18:00 – 22:30,星期日: 18:00 – 22:30,TRUE,https://maps.google.com/?cid=17827046822794094103,,
新卡莎素食西餐廳,100台灣台北市中正區羅斯福路四段52巷1號1樓,4.3,504,25.0147648,121.5334323,+886 2 2365 3339,"星期一: 11:30 – 14:30, 17:00 – 21:30",星期二: 休息,"星期三: 11:30 – 14:30, 17:00 – 21:30",星期四: 11:30 – 21:30,星期五: 11:30 – 21:30,星期六: 11:30 – 21:30,星期日: 11:30 – 21:30,TRUE,https://maps.google.com/?cid=8159145809265422594,2,
來賓 印度餐廳和酒吧Atithi Indian Restaurant & Bar,"106台北市大安區和平東路三段34號, Da'an District, Taipei City, 106, 大安區台北市台灣 106",4.9,71,25.0243827,121.5475791,+886 978 322 146,"星期一: 11:30 – 14:30, 17:30 – 21:30","星期二: 11:30 – 14:30, 17:30 – 21:30","星期三: 11:30 – 14:30, 17:30 – 21:30","星期四: 11:30 – 14:30, 17:30 – 21:30","星期五: 11:30 – 14:30, 17:30 – 21:30","星期六: 11:30 – 14:30, 17:30 – 21:30","星期日: 11:30 – 14:30, 17:30 – 21:30",TRUE,https://maps.google.com/?cid=7215584893051731018,,
樂氣串燒居酒屋,106台灣台北市大安區通化街19巷3號,4.8,1315,25.031721,121.554587,+886 2 2700 9425,星期一: 休息,星期二: 17:30 – 00:00,星期三: 17:30 – 00:00,星期四: 17:30 – 00:00,星期五: 17:30 – 01:00,星期六: 17:30 – 01:00,星期日: 17:30 – 00:00,,https://maps.google.com/?cid=16021091069053378696,,
神樂坂割烹Kagurazaka Kappou restaurant - 日本料理餐廳 高CP值創意美食料理 午餐晚餐推薦餐廳 人氣熱門居酒屋 精緻割烹料理 首選壽司 必吃生魚片 無菜單料理價格,110台灣台北市信義區和平東路三段177號,4.6,602,25.023925,121.553149,+886 2 2377 1101,星期一: 休息,"星期二: 11:30 – 14:30, 17:30 – 21:30","星期三: 11:30 – 14:30, 17:30 – 21:30","星期四: 11:30 – 14:30, 17:30 – 21:30","星期五: 11:30 – 14:30, 17:30 – 21:30","星期六: 11:30 – 14:30, 17:30 – 21:30","星期日: 11:30 – 14:30, 17:30 – 21:30",,https://maps.google.com/?cid=15933749193621671748,2,
羊老大餐廳(台式餐廳),231台灣新北市新店區中興路一段57-1號,4.3,98,24.960537,121.5397617,+886 2 8911 2137,星期一: 16:00 – 23:00,星期二: 16:00 – 23:00,星期三: 16:00 – 22:00,星期四: 休息,星期五: 16:00 – 23:00,星期六: 16:00 – 23:00,星期日: 16:00 – 23:00,,https://maps.google.com/?cid=12094180567464869693,2,
Rebirth Cafe & Restaurant,106台灣台北市大安區溫州街48巷2號,4.3,678,25.021369,121.5329524,+886 2 2366 0985,星期一: 14:00 – 02:00,星期二: 14:00 – 02:00,星期三: 14:00 – 02:00,星期四: 14:00 – 02:00,星期五: 14:00 – 02:00,星期六: 14:00 – 02:00,星期日: 14:00 – 02:00,,https://maps.google.com/?cid=14081971158244644097,2,
錢都日式涮涮鍋-台北師大店 CHIEN TU HOT POT,106台灣台北市大安區羅斯福路三段95號,4.3,2378,25.0225279,121.5264274,+886 2 2364 1565,星期一: 11:00 – 02:00,星期二: 11:00 – 02:00,星期三: 11:00 – 02:00,星期四: 11:00 – 02:00,星期五: 11:00 – 02:00,星期六: 11:00 – 02:00,星期日: 11:00 – 02:00,TRUE,https://maps.google.com/?cid=7602393276133039147,2,
すき家 SUKIYA 大安店,106台灣台北市大安區復興南路二段25號,3.8,1236,25.0319532,121.5439174,+886 80 003 1131,星期一: 24 小時營業,星期二: 24 小時營業,星期三: 24 小時營業,星期四: 24 小時營業,星期五: 24 小時營業,星期六: 24 小時營業,星期日: 24 小時營業,,https://maps.google.com/?cid=3544068557327730572,1,
紅蜻蜓食事處,106台灣台北市大安區永康街35之1號,3.8,547,25.0308284,121.5295899,+886 2 2343 2222,星期一: 17:00 – 23:30,星期二: 17:00 – 23:30,星期三: 17:00 – 23:30,星期四: 17:00 – 23:30,星期五: 17:00 – 23:30,星期六: 17:00 – 23:30,星期日: 17:00 – 23:30,,https://maps.google.com/?cid=9653288274823762898,2,
魚舞和食居酒屋,231台灣新北市新店區北新路二段97巷3號,4.2,891,24.9742131,121.5424076,+886 2 2911 7077,"星期一: 11:30 – 14:30, 17:30 – 23:30","星期二: 11:30 – 14:30, 17:30 – 23:30","星期三: 11:30 – 14:30, 17:30 – 23:30","星期四: 11:30 – 14:30, 17:30 – 23:30","星期五: 11:30 – 14:30, 17:30 – 23:30","星期六: 11:30 – 14:30, 17:30 – 23:30","星期日: 11:30 – 14:30, 17:30 – 23:30",,https://maps.google.com/?cid=11285542769718231985,2,
大戶屋大安店,106台灣台北市大安區復興南路一段323號B1,4,880,25.0336797,121.5438918,+886 2 8978 2668,"星期一: 11:00 – 15:00, 17:00 – 22:00","星期二: 11:00 – 15:00, 17:00 – 22:00","星期三: 11:00 – 15:00, 17:00 – 22:00","星期四: 11:00 – 15:00, 17:00 – 22:00","星期五: 11:00 – 15:00, 17:00 – 22:00",星期六: 11:00 – 22:00,星期日: 11:00 – 22:00,,https://maps.google.com/?cid=14699238556397065287,2,
YAYOI彌生軒 七張店,"2樓, No. 128號北新路二段新店區新北市台灣 231",4.2,899,24.975109,121.54315,+886 2 8913 5355,星期一: 11:00 – 21:30,星期二: 11:00 – 21:30,星期三: 11:00 – 21:30,星期四: 11:00 – 21:30,星期五: 11:00 – 21:30,星期六: 11:00 – 21:30,星期日: 11:00 – 21:30,,https://maps.google.com/?cid=9614185319107337972,2,
卡帛素食烘培‧義式廚房‧港式餐點 總店,106台灣台北市大安區復興南路二段308巷5號,4.2,1138,25.0236612,121.542976,+886 2 2733 6819,星期一: 08:00 – 21:30,星期二: 08:00 – 21:30,星期三: 08:00 – 21:30,星期四: 08:00 – 21:30,星期五: 08:00 – 21:30,星期六: 08:00 – 21:30,星期日: 08:00 – 21:30,TRUE,https://maps.google.com/?cid=12356277731150706959,2,
爭鮮迴轉壽司-大安店,10658台灣台北市大安區信義路三段89號,3.8,1011,25.0337221,121.5384194,+886 2 2325 7768,星期一: 11:00 – 21:30,星期二: 11:00 – 21:30,星期三: 11:00 – 21:30,星期四: 11:00 – 21:30,星期五: 11:00 – 21:30,星期六: 11:00 – 21:30,星期日: 11:00 – 21:30,,https://maps.google.com/?cid=15303645313296839545,1,
爭鮮迴轉壽司 北醫店,110台灣台北市信義區吳興街273號,3.7,942,25.0267759,121.5640781,+886 2 2758 8502,星期一: 11:00 – 21:30,星期二: 11:00 – 21:30,星期三: 11:00 – 21:30,星期四: 11:00 – 21:30,星期五: 11:00 – 21:30,星期六: 11:00 – 21:30,星期日: 11:00 – 21:30,,https://maps.google.com/?cid=1670950717389766884,2,
原源牛肉麵,231台灣新北市新店區寶橋路212號,4.7,66,24.9784515,121.5511495,+886 2 2913 1178,星期一: 11:00 – 23:30,"星期二: 00:00 – 01:00, 11:00 – 23:30","星期三: 00:00 – 01:00, 11:00 – 23:30","星期四: 00:00 – 01:00, 11:00 – 23:30","星期五: 00:00 – 01:00, 11:00 – 23:30","星期六: 00:00 – 01:00, 11:00 – 23:30",星期日: 休息,FALSE,https://maps.google.com/?cid=48025062704391532,,
今日壽司店,106台灣台北市大安區臨江街106之2號,3.7,876,25.0299856,121.5547344,+886 2 2736 9561,星期一: 休息,星期二: 17:00 – 23:00,星期三: 17:00 – 23:00,星期四: 17:00 – 23:00,星期五: 17:00 – 23:00,星期六: 17:00 – 23:00,星期日: 17:00 – 23:00,,https://maps.google.com/?cid=548539202442050160,,
七福狸居酒屋,106台灣台北市大安區敦化南路二段265巷15號一樓,4.6,182,25.025551,121.5497318,+886 2 2737 3009,星期一: 17:00 – 23:00,星期二: 休息,星期三: 17:00 – 23:00,星期四: 17:00 – 23:00,星期五: 17:00 – 23:00,星期六: 17:00 – 23:00,星期日: 17:00 – 23:00,,https://maps.google.com/?cid=9643146022675309900,,
正傳統擔仔麵,231台灣新北市新店區建國路209號,4.1,357,24.9802975,121.5376303,+886 2 2219 9753,星期一: 17:00 – 02:00,星期二: 17:00 – 02:00,星期三: 17:00 – 02:00,星期四: 17:00 – 02:00,星期五: 17:00 – 02:00,星期六: 17:00 – 02:00,星期日: 17:00 – 02:00,,https://maps.google.com/?cid=12517869104143973862,2,
四哥的店,116台灣台北市文山區指南路三段38巷33-1號2F,4.1,1630,24.9671564,121.5907471,+886 2 2939 2832,星期一: 11:30 – 22:00,星期二: 11:30 – 22:00,星期三: 11:30 – 22:00,星期四: 11:30 – 22:00,星期五: 11:30 – 22:00,星期六: 11:30 – 22:00,星期日: 11:30 – 22:00,,https://maps.google.com/?cid=9819985320901950056,2,
SECOND FLOOR CAFE 貳樓敦南,106台灣台北市大安區敦化南路二段63巷14號,4.3,3680,25.0308871,121.550009,+886 2 2700 9855,星期一: 11:00 – 21:00,星期二: 11:00 – 21:00,星期三: 11:00 – 21:00,星期四: 11:00 – 21:00,星期五: 11:00 – 21:00,星期六: 09:00 – 21:00,星期日: 09:00 – 21:00,TRUE,https://maps.google.com/?cid=17835539384920904832,2,
瑞安早餐店,106台灣台北市大安區瑞安街192號,3.9,22,25.0284028,121.5408941,+886 2 2707 0719,星期一: 06:00 – 11:00,星期二: 06:00 – 23:00,星期三: 06:00 – 23:00,星期四: 06:00 – 23:00,星期五: 06:00 – 12:00,星期六: 休息,星期日: 休息,,https://maps.google.com/?cid=5125434551664765356,,
樂麵屋 永康店,106台灣台北市大安區永康街10巷7號,4.2,2096,25.0320601,121.529195,+886 2 2395 1787,"星期一: 11:30 – 14:00, 17:30 – 21:00","星期二: 11:30 – 14:00, 17:30 – 21:00","星期三: 11:30 – 14:00, 17:30 – 21:00","星期四: 11:30 – 14:00, 17:30 – 21:00","星期五: 11:30 – 14:00, 17:30 – 21:30",星期六: 11:30 – 21:30,星期日: 11:30 – 21:00,,https://maps.google.com/?cid=63262380249903786,2,
浙寧芳家餐廳,106台灣台北市大安區信義路四段136號,4.1,563,25.0330459,121.5499104,+886 2 2754 1658,"星期一: 11:30 – 14:00, 17:30 – 21:00","星期二: 11:30 – 14:00, 17:30 – 21:00","星期三: 11:30 – 14:00, 17:30 – 21:00","星期四: 11:30 – 14:00, 17:30 – 21:00","星期五: 11:30 – 14:00, 17:30 – 21:00","星期六: 11:30 – 14:00, 17:30 – 21:00","星期日: 11:30 – 14:00, 17:30 – 21:00",,https://maps.google.com/?cid=382458648425919973,2,
舞鶴村 居酒屋,106台灣台北市大安區和平東路三段212巷27號,4.8,69,25.0218631,121.5536779,+886 2 2732 7716,星期一: 17:30 – 23:00,星期二: 17:30 – 23:00,星期三: 17:30 – 23:00,"星期四: 12:00 – 14:00, 17:30 – 23:00","星期五: 12:00 – 14:00, 17:30 – 23:00","星期六: 12:00 – 14:00, 17:30 – 23:00","星期日: 12:00 – 14:00, 17:30 – 23:00",FALSE,https://maps.google.com/?cid=8366129850742035749,,
藍玲四川牛肉麵,"No, No. 25通化街38巷大安區台北市台灣 106",3.9,431,25.0310891,121.5533742,+886 2 2709 9909,星期一: 休息,"星期二: 11:30 – 16:00, 17:00 – 22:00","星期三: 11:30 – 16:00, 17:00 – 22:00","星期四: 11:30 – 16:00, 17:00 – 22:00","星期五: 11:30 – 16:00, 17:00 – 22:00","星期六: 11:30 – 16:00, 17:00 – 22:00","星期日: 11:30 – 16:00, 17:00 – 22:00",,https://maps.google.com/?cid=9013067766183557969,,
高記新生店,106台灣台北市大安區新生南路一段167號,3.9,4011,25.0341743,121.532983,+886 2 2325 7839,星期一: 08:30 – 21:30,星期二: 08:30 – 21:30,星期三: 08:30 – 21:30,星期四: 08:30 – 21:30,星期五: 08:30 – 21:30,星期六: 08:30 – 21:30,星期日: 08:30 – 21:30,,https://maps.google.com/?cid=9538800082177619312,2,
泰緬姐妹小館,110台灣台北市信義區吳興街112號,4.6,340,25.0300596,121.5610192,+886 2 2732 0728,"星期一: 11:00 – 14:30, 17:00 – 20:30","星期二: 11:00 – 14:30, 17:00 – 20:30","星期三: 11:00 – 14:30, 17:00 – 20:30","星期四: 11:00 – 14:30, 17:00 – 20:30","星期五: 11:00 – 14:30, 17:00 – 20:30","星期六: 11:00 – 14:30, 17:00 – 20:30",星期日: 休息,,https://maps.google.com/?cid=1576912342202350789,,
韓庭州韓國料理,106台灣台北市大安區溫州街87號,3.8,1368,25.019137,121.53294,+886 2 8369 1302,"星期一: 11:00 – 14:00, 17:00 – 20:45","星期二: 11:00 – 14:00, 17:00 – 20:45","星期三: 11:00 – 14:00, 17:00 – 20:45","星期四: 11:00 – 14:00, 17:00 – 20:45","星期五: 11:00 – 14:00, 17:00 – 20:45","星期六: 11:00 – 14:00, 17:00 – 20:45","星期日: 11:00 – 14:00, 17:00 – 20:45",,https://maps.google.com/?cid=7922754500540331015,2,
PAPA RESTAURANT /師大美食/師大義大利麵/師大簡餐/師大披薩/師大手工烘培/師大歐式麵包/師大下午茶/師大聚餐推薦/師大商業午餐/師大包場,106台灣台北市大安區師大路80巷1-1號,4.8,614,25.023405,121.528015,+886 2 2363 8060,星期一: 11:30 – 21:00,星期二: 休息,星期三: 11:30 – 21:00,星期四: 11:30 – 21:00,星期五: 11:30 – 21:00,星期六: 11:30 – 21:00,星期日: 11:30 – 21:00,,https://maps.google.com/?cid=1747736649217274703,,
開心農場素食店,106台灣台北市大安區建國南路二段123巷8號,4.6,423,25.0294846,121.5388685,+886 2 2367 8438,"星期一: 10:00 – 13:30, 17:30 – 19:30","星期二: 10:00 – 13:30, 17:30 – 19:30","星期三: 10:00 – 13:30, 17:30 – 19:30","星期四: 10:00 – 13:30, 17:30 – 19:30","星期五: 10:00 – 13:30, 17:30 – 19:30","星期六: 10:00 – 13:30, 17:30 – 19:30",星期日: 休息,TRUE,https://maps.google.com/?cid=11530757210528203903,1,
來來牛肉麵,116台灣台北市文山区兴隆路四段183號1樓,4.4,363,24.9834298,121.562251,+886 2 2937 5257,"星期一: 11:30 – 14:00, 18:00 – 20:30","星期二: 11:30 – 14:00, 18:00 – 20:30","星期三: 11:30 – 14:00, 18:00 – 20:30","星期四: 11:30 – 14:00, 18:00 – 20:30","星期五: 11:30 – 14:00, 18:00 – 20:30","星期六: 11:30 – 14:00, 18:00 – 20:30",星期日: 休息,,https://maps.google.com/?cid=8050428445620472004,1,
林家牛肉麵,110台灣台北市信義區吳興街281巷9號,4,1502,25.0265404,121.5645573,+886 922 163 609,星期一: 11:30 – 20:30,星期二: 11:30 – 20:30,星期三: 11:30 – 20:30,星期四: 11:30 – 20:30,星期五: 11:30 – 20:30,星期六: 11:30 – 20:30,星期日: 休息,,https://maps.google.com/?cid=6962381572011683620,2,
素食茄汁牛肉麵,110台灣台北市信義區信義路五段150巷302號,4.1,421,25.0272664,121.569392,+886 916 004 678,"星期一: 11:30 – 14:00, 17:30 – 20:00","星期二: 11:30 – 14:00, 17:30 – 20:00","星期三: 11:30 – 14:00, 17:30 – 20:00","星期四: 11:30 – 14:00, 17:30 – 20:00","星期五: 11:30 – 14:00, 17:30 – 20:00","星期六: 11:30 – 14:00, 17:30 – 20:00","星期日: 11:30 – 14:00, 17:30 – 20:00",TRUE,https://maps.google.com/?cid=9781906594492851563,1,
越南美食 - 金川,106台灣台北市大安區安居街92號,4.4,320,25.0192656,121.552899,+886 2 2735 7080,"星期一: 11:00 – 14:00, 17:00 – 21:00","星期二: 11:00 – 14:00, 17:00 – 21:00","星期三: 11:00 – 14:00, 17:00 – 21:00","星期四: 11:00 – 14:00, 17:00 – 21:00","星期五: 11:00 – 14:00, 17:00 – 21:00","星期六: 11:00 – 14:00, 17:00 – 21:00","星期日: 11:00 – 14:00, 17:00 – 21:00",,https://maps.google.com/?cid=3282339020856831333,1,
福聚園餐廳,106台灣台北市大安區敦化南路二段63巷53弄6號,4.2,105,25.0311879,121.5514506,+886 2 2700 4807,星期一: 休息,"星期二: 11:30 – 13:30, 17:00 – 20:00","星期三: 11:30 – 13:30, 17:00 – 20:00","星期四: 11:30 – 13:30, 17:00 – 20:00","星期五: 11:30 – 13:30, 17:00 – 20:00","星期六: 11:30 – 13:30, 17:00 – 20:00","星期日: 11:30 – 13:30, 17:00 – 20:00",,https://maps.google.com/?cid=7161400190317370721,,
川揚友梅餐廳,110台灣台北市信義區莊敬路333號,4,456,25.0280064,121.5641184,+886 2 2720 2126,星期一: 休息,"星期二: 11:00 – 14:00, 17:00 – 21:00","星期三: 11:00 – 14:00, 17:00 – 21:00","星期四: 11:00 – 14:00, 17:00 – 21:00","星期五: 11:00 – 14:00, 17:00 – 21:00","星期六: 11:00 – 14:00, 17:00 – 21:00","星期日: 11:00 – 14:00, 17:00 – 21:00",,https://maps.google.com/?cid=16188660839329249666,1,
山嵐拉麵 公館店,100台灣台北市中正區羅斯福路四段136巷1弄13號,4.4,1973,25.0130637,121.5353865,+886 2 2369 0122,"星期一: 11:30 – 14:15, 17:15 – 20:30","星期二: 11:30 – 14:15, 17:15 – 20:30","星期三: 11:30 – 14:15, 17:15 – 20:30","星期四: 11:30 – 14:15, 17:15 – 20:30","星期五: 11:30 – 14:15, 17:15 – 20:45","星期六: 11:30 – 14:30, 17:15 – 20:45","星期日: 11:30 – 14:30, 17:15 – 20:45",,https://maps.google.com/?cid=10592976685279970709,2,
蘇杭餐廳 大坪林店,231台灣新北市新店區民權路25號,4.6,5463,24.9827988,121.5410118,+886 2 2910 7522,"星期一: 11:30 – 14:00, 17:30 – 21:00","星期二: 11:30 – 14:00, 17:30 – 21:00","星期三: 11:30 – 14:00, 17:30 – 21:00","星期四: 11:30 – 14:00, 17:30 – 21:00","星期五: 11:30 – 14:00, 17:30 – 21:00","星期六: 11:30 – 14:00, 17:30 – 21:00","星期日: 11:30 – 14:00, 17:30 – 21:00",TRUE,https://maps.google.com/?cid=10139866826218988316,2,
峨嵋川菜餐廳,100台灣台北市中正區羅斯福路三段316巷8弄10號,4.1,1197,25.0154042,121.5325493,+886 2 2365 5157,"星期一: 11:00 – 14:00, 17:00 – 20:45","星期二: 11:00 – 14:00, 17:00 – 20:45","星期三: 11:00 – 14:00, 17:00 – 20:45","星期四: 11:00 – 14:00, 17:00 – 20:45","星期五: 11:00 – 14:00, 17:00 – 20:45","星期六: 11:00 – 14:00, 17:00 – 20:45","星期日: 11:00 – 14:00, 17:00 – 20:45",,https://maps.google.com/?cid=5454511776552876943,2,
新圓鑫餐廳,231台灣新北市新店區中興路二段22-2號,3.9,562,24.9704346,121.5469838,+886 2 8665 0688,星期一: 休息,"星期二: 11:00 – 14:00, 17:30 – 21:00","星期三: 11:00 – 14:00, 17:30 – 21:00","星期四: 11:00 – 14:00, 17:30 – 21:00","星期五: 11:00 – 14:00, 17:30 – 21:00","星期六: 11:00 – 14:00, 17:30 – 21:00","星期日: 11:00 – 14:00, 17:30 – 21:00",,https://maps.google.com/?cid=5773825052615145475,2,
霞飛驛歐法西餐,106台灣台北市大安區新生南路三段60巷8號,4.2,1225,25.0200278,121.5334694,+886 2 2363 3663,"星期一: 11:00 – 14:30, 17:00 – 21:00","星期二: 11:00 – 14:30, 17:00 – 21:00","星期三: 11:00 – 14:30, 17:00 – 21:00","星期四: 11:00 – 14:30, 17:00 – 21:00","星期五: 11:00 – 14:30, 17:00 – 21:00",星期六: 11:00 – 21:00,星期日: 11:00 – 21:00,,https://maps.google.com/?cid=4148521987839205369,2,
易牙居餐廳,100台灣台北市中正區羅斯福路三段286巷16號,3.9,1367,25.015907,121.532355,+886 2 2367 8218,"星期一: 11:30 – 14:00, 17:00 – 21:00","星期二: 11:30 – 14:00, 17:00 – 21:00","星期三: 11:30 – 14:00, 17:00 – 21:00","星期四: 11:30 – 14:00, 17:00 – 21:00","星期五: 11:30 – 14:00, 17:00 – 21:00",星期六: 11:30 – 21:00,星期日: 11:30 – 21:00,TRUE,https://maps.google.com/?cid=11720860980482061757,2,
海霸王餐廳,104台灣台北市中山區中山北路三段59號,3.7,8952,25.0686564,121.5232852,+886 2 2596 3141,"星期一: 11:00 – 14:00, 17:00 – 21:30","星期二: 11:30 – 14:00, 17:30 – 21:30","星期三: 11:30 – 14:00, 17:30 – 21:30","星期四: 11:30 – 14:00, 17:30 – 21:30","星期五: 11:30 – 14:00, 17:30 – 21:30","星期六: 11:00 – 14:00, 17:00 – 21:30","星期日: 11:00 – 14:00, 17:00 – 21:30",TRUE,https://maps.google.com/?cid=345004169990467975,2,
養心茶樓 蔬食飲茶,104台灣台北市中山區松江路128號,4.3,6146,25.0527859,121.5327926,+886 2 2542 8828,"星期一: 11:30 – 14:20, 14:30 – 16:30, 17:30 – 21:30","星期二: 11:30 – 14:20, 14:30 – 16:30, 17:30 – 21:30","星期三: 11:30 – 14:20, 14:30 – 16:30, 17:30 – 21:30","星期四: 11:30 – 14:20, 14:30 – 16:30, 17:30 – 21:30","星期五: 11:30 – 14:20, 14:30 – 16:30, 17:30 – 21:30","星期六: 11:00 – 16:00, 17:00 – 21:30","星期日: 11:00 – 16:00, 17:00 – 21:30",TRUE,https://maps.google.com/?cid=9388692945119673168,2,
隱居風味居酒屋,220台灣新北市板橋區東門街30-1號,4.8,2641,25.0085632,121.4580162,+886 2 8969 8260,星期一: 17:30 – 00:30,星期二: 17:30 – 00:30,星期三: 17:30 – 00:30,星期四: 17:30 – 00:30,星期五: 17:30 – 01:30,星期六: 17:30 – 01:30,星期日: 17:30 – 00:30,,https://maps.google.com/?cid=9985661776191516469,2,
大和日本料理,10491台灣台北市中山區錦州街17號,4.3,2802,25.0604086,121.5244708,+886 2 2531 7786,"星期一: 11:15 – 14:00, 17:00 – 21:30","星期二: 11:15 – 14:00, 17:00 – 21:30","星期三: 11:15 – 14:00, 17:00 – 21:30","星期四: 11:15 – 14:00, 17:00 – 21:30","星期五: 11:15 – 14:00, 17:00 – 21:30","星期六: 11:15 – 14:00, 17:00 – 21:30","星期日: 11:15 – 14:00, 17:00 – 21:30",,https://maps.google.com/?cid=5568825488062367745,2,
Soshow bar & Restaurant,"2f, No. 47號中山北路一段中山區台北市台灣 104",4.4,1204,25.0491987,121.5215731,+886 2 2563 0519,星期一: 18:00 – 01:30,星期二: 18:00 – 01:30,星期三: 18:00 – 01:30,星期四: 18:00 – 01:30,星期五: 18:00 – 02:00,星期六: 18:00 – 02:00,星期日: 18:00 – 01:30,,https://maps.google.com/?cid=12894494929517118448,2,
TGI FRIDAYS 星期五美式餐廳 環球餐廳,235台灣新北市中和區中山路三段122號4樓,4.1,2065,25.0062395,121.4751313,+886 2 2225 3578,星期一: 11:00 – 22:00,星期二: 11:00 – 22:00,星期三: 11:00 – 22:00,星期四: 11:00 – 22:00,星期五: 11:00 – 00:00,星期六: 11:00 – 00:00,星期日: 11:00 – 22:00,,https://maps.google.com/?cid=17992740394402416721,2,
添好運 - 板橋大遠百店,220台灣新北市板橋區新站路28號號 B1,3.8,4013,25.013487,121.4668732,+886 2 2955 7978,星期一: 11:00 – 22:00,星期二: 11:00 – 22:00,星期三: 11:00 – 22:00,星期四: 11:00 – 22:00,星期五: 11:00 – 22:00,星期六: 11:00 – 22:00,星期日: 11:00 – 22:00,,https://maps.google.com/?cid=11816300482673765812,2,
激屋居酒屋,10491台灣台北市中山區林森北路145巷21號,4.4,209,25.0513379,121.5260495,+886 2 2531 9210,星期一: 18:00 – 01:00,星期二: 18:00 – 01:00,星期三: 18:00 – 01:00,星期四: 18:00 – 01:00,星期五: 18:00 – 02:00,星期六: 18:00 – 02:00,星期日: 休息,,https://maps.google.com/?cid=16604663672174098308,,
隆居酒屋,10491台灣台北市中山區林森北路145巷23號,4.2,259,25.0512892,121.52615,+886 2 2531 3342,星期一: 18:00 – 00:00,星期二: 18:00 – 00:00,星期三: 18:00 – 00:00,星期四: 18:00 – 00:00,星期五: 18:00 – 00:00,星期六: 18:00 – 00:00,星期日: 休息,,https://maps.google.com/?cid=11246740308156631168,2,
儂來餐廳,10491台灣台北市中山區民生東路二段147巷11弄1號,4.1,2886,25.0600799,121.5350657,+886 2 2505 0891,"星期一: 11:30 – 14:00, 17:00 – 21:30","星期二: 11:30 – 14:00, 17:00 – 21:30","星期三: 11:30 – 14:00, 17:00 – 21:30","星期四: 11:30 – 14:00, 17:00 – 21:30","星期五: 11:30 – 14:00, 17:00 – 21:30","星期六: 11:30 – 14:00, 17:00 – 21:30","星期日: 11:30 – 14:00, 17:00 – 21:30",,https://maps.google.com/?cid=13683204893554540704,2,
hot 7Plus鐵板燒 台北家樂福桂林店,108台灣台北市萬華區桂林路1號桂林家樂福號 4樓4 樓,4.1,2507,25.0377693,121.5060948,+886 2 2388 2322,"星期一: 11:30 – 14:30, 17:30 – 22:00","星期二: 11:30 – 14:30, 17:30 – 22:00","星期三: 11:30 – 14:30, 17:30 – 22:00","星期四: 11:30 – 14:30, 17:30 – 22:00","星期五: 11:30 – 14:30, 17:30 – 22:00","星期六: 11:30 – 15:00, 17:00 – 22:00","星期日: 11:30 – 15:00, 17:00 – 22:00",,https://maps.google.com/?cid=14911245954466048359,2,
すき家 SUKIYA 忠孝復興店,106台灣台北市大安區復興南路一段78號,3.7,1292,25.0438139,121.5435893,+886 80 003 1131,星期一: 24 小時營業,星期二: 24 小時營業,星期三: 24 小時營業,星期四: 24 小時營業,星期五: 24 小時營業,星期六: 24 小時營業,星期日: 24 小時營業,,https://maps.google.com/?cid=12500178089606038766,1,
馬友友印度餐廳酒吧+水煙館,10491台灣台北市中山區松江路1-1號,4.6,1808,25.0458202,121.5332625,+886 2 2500 6186,星期一: 休息,"星期二: 12:00 – 15:00, 17:30 – 23:30","星期三: 12:00 – 15:00, 17:30 – 23:30","星期四: 12:00 – 15:00, 17:30 – 23:30","星期五: 12:00 – 15:00, 17:30 – 03:00","星期六: 12:00 – 15:00, 17:00 – 03:00","星期日: 12:00 – 15:00, 17:00 – 23:30",TRUE,https://maps.google.com/?cid=18370897089425281745,,
穗.居酒屋,10491台灣台北市中山區長安東路一段44之1號,4.2,182,25.0484135,121.5272966,+886 2 2511 9700,星期一: 17:30 – 01:30,星期二: 17:30 – 01:30,星期三: 17:30 – 01:30,星期四: 17:30 – 01:30,星期五: 17:30 – 01:30,星期六: 17:30 – 01:30,星期日: 17:30 – 01:30,,https://maps.google.com/?cid=558086287974402969,2,
欣葉日本料理館前店 | 謝師宴專案開跑，平日15人用餐招待2人！,100台灣台北市中正區館前路12號6樓,4.1,6200,25.0456618,121.5147282,+886 2 2371 3311,"星期一: 11:30 – 14:00, 14:30 – 16:30, 17:30 – 21:30","星期二: 11:30 – 14:00, 14:30 – 16:30, 17:30 – 21:30","星期三: 11:30 – 14:00, 14:30 – 16:30, 17:30 – 21:30","星期四: 11:30 – 14:00, 14:30 – 16:30, 17:30 – 21:30","星期五: 11:30 – 14:00, 14:30 – 16:30, 17:30 – 21:30","星期六: 11:30 – 14:00, 14:30 – 16:30, 17:10 – 21:30","星期日: 11:30 – 14:00, 14:30 – 16:30, 17:10 – 21:30",TRUE,https://maps.google.com/?cid=5876482673281926307,2,
鼎富樓餐廳,100台灣台北市中正區武昌街一段1-2號2樓,3.9,594,25.0441669,121.513528,+886 2 2311 9495,"星期一: 11:00 – 14:00, 17:00 – 21:30","星期二: 11:00 – 14:00, 17:00 – 21:30","星期三: 11:00 – 14:00, 17:00 – 21:30","星期四: 11:00 – 14:00, 17:00 – 21:30","星期五: 11:00 – 14:00, 17:00 – 21:30","星期六: 11:00 – 14:00, 17:00 – 21:30","星期日: 11:00 – 14:00, 17:00 – 21:30",,https://maps.google.com/?cid=11114467350470148684,2,
SipSip Bar & Restaurant,"1F-1, 中四D館, No. 一號八德路一段中正區台北市台灣 100",4.9,81,25.0447136,121.529176,+886 2 2341 1010,星期一: 12:00 – 22:00,星期二: 12:00 – 22:00,星期三: 12:00 – 22:00,星期四: 12:00 – 22:00,星期五: 12:00 – 22:00,星期六: 12:00 – 22:00,星期日: 12:00 – 22:00,,https://maps.google.com/?cid=17258067201388377944,,
泰富豪,10491台灣台北市中山區松江路270號,4.2,698,25.0596242,121.5329771,+886 2 2511 8199,"星期一: 11:30 – 14:00, 17:00 – 22:00","星期二: 11:30 – 14:00, 17:00 – 22:00","星期三: 11:30 – 14:00, 17:00 – 22:00","星期四: 11:30 – 14:00, 17:00 – 22:00","星期五: 11:30 – 14:00, 17:00 – 22:00","星期六: 11:30 – 14:30, 17:00 – 22:00","星期日: 11:30 – 14:30, 17:00 – 22:00",,https://maps.google.com/?cid=5911505310680437425,2,
77 opèt Restaurant,106台灣台北市大安區復興南路一段279巷30弄3號1樓,4.7,942,25.035437,121.5452608,+886 2 2706 2677,星期一: 休息,星期二: 17:00 – 22:00,星期三: 17:00 – 22:00,星期四: 17:00 – 22:00,星期五: 17:00 – 22:00,"星期六: 12:00 – 14:00, 17:00 – 22:00","星期日: 12:00 – 14:00, 17:00 – 22:00",TRUE,https://maps.google.com/?cid=6043753934232601977,,
baan Taipei 正宗泰式家常料理,106台灣台北市大安區敦化南路一段233巷15號,3.8,861,25.0405046,121.550201,+886 2 2711 0528,"星期一: 11:30 – 14:30, 17:30 – 22:30","星期二: 11:30 – 14:30, 17:30 – 22:30","星期三: 11:30 – 14:30, 17:30 – 22:30","星期四: 11:30 – 14:30, 17:30 – 22:30","星期五: 11:30 – 14:30, 17:30 – 22:30","星期六: 11:30 – 14:30, 17:30 – 22:30","星期日: 11:30 – 14:30, 17:30 – 22:30",,https://maps.google.com/?cid=833836247173460860,,
喬森西餐Savory Restaurant,110台灣台北市信義區松信路221號,4.4,219,25.0413701,121.5721458,+886 2 2528 3099,星期一: 休息,星期二: 17:30 – 21:30,星期三: 17:30 – 21:30,星期四: 17:30 – 21:30,星期五: 17:30 – 21:30,"星期六: 11:30 – 14:30, 17:30 – 21:30","星期日: 11:30 – 14:30, 17:30 – 21:30",,https://maps.google.com/?cid=9290129825516496316,,
驢子餐廳 春大直店,104台灣台北市中山區樂群三路303號3樓,4.4,2497,25.0827622,121.5603354,+886 903 393 098,"星期一: 11:30 – 14:30, 17:30 – 21:30","星期二: 11:30 – 14:30, 17:30 – 21:30","星期三: 11:30 – 14:30, 17:30 – 21:30","星期四: 11:30 – 14:30, 17:30 – 21:30","星期五: 11:30 – 14:30, 17:30 – 21:30","星期六: 11:30 – 14:30, 17:30 – 21:30","星期日: 11:30 – 14:30, 17:30 – 21:30",TRUE,https://maps.google.com/?cid=17778201792373287955,3,
歡樂便所主題餐廳,111台灣台北市士林區文林路173號2F,4.6,2158,25.0895914,121.5268197,+886 2 8861 4384,星期一: 12:00 – 21:30,星期二: 12:00 – 21:30,星期三: 12:00 – 21:30,星期四: 12:00 – 21:30,星期五: 12:00 – 21:30,星期六: 11:30 – 22:00,星期日: 11:30 – 22:00,,https://maps.google.com/?cid=4494128829254529324,2,
Jai Ho Indian Restaurant 翡宴印度餐廳天母,"1F No. 22之1號, 天母東路50巷士林區台北市台灣 11153",4.5,427,25.1171257,121.5334079,+886 2 2876 3838,"星期一: 11:00 – 14:30, 17:00 – 21:30","星期二: 11:00 – 14:30, 17:00 – 21:30","星期三: 11:00 – 14:30, 17:00 – 21:30","星期四: 11:00 – 14:30, 17:00 – 21:30","星期五: 11:00 – 14:30, 17:00 – 21:30","星期六: 11:00 – 14:30, 17:00 – 21:30","星期日: 11:00 – 14:30, 17:00 – 21:30",TRUE,https://maps.google.com/?cid=9506345873510213949,2,
Fumo,"No, No. 65天母東路士林區台北市台灣 111",4.6,63,25.1182744,121.5341543,+886 2 2877 1020,星期一: 休息,星期二: 18:00 – 22:00,星期三: 18:00 – 22:00,星期四: 18:00 – 22:00,星期五: 18:00 – 23:00,"星期六: 11:30 – 14:00, 18:00 – 23:00","星期日: 11:30 – 14:00, 18:00 – 22:00",TRUE,https://maps.google.com/?cid=2105720354530375830,,
非常泰 遠東SOGO天母店,111台灣台北市士林區中山北路六段77號8樓,4.1,850,25.105306,121.5245943,+886 2 2831 0188,"星期一: 11:00 – 15:00, 17:00 – 21:30","星期二: 11:00 – 15:00, 17:00 – 21:30","星期三: 11:00 – 15:00, 17:00 – 21:30","星期四: 11:00 – 15:00, 17:00 – 21:30","星期五: 11:00 – 15:00, 17:00 – 21:30",星期六: 11:00 – 22:00,星期日: 11:30 – 22:00,,https://maps.google.com/?cid=16982003034494167649,3,
YAYOI彌生軒 天母店,111台灣台北市士林區忠誠路二段70巷2號1樓,4.2,1212,25.111543,121.530421,+886 2 2831 1618,"星期一: 11:30 – 15:00, 17:30 – 22:00","星期二: 11:30 – 15:00, 17:30 – 22:00","星期三: 11:30 – 15:00, 17:30 – 22:00","星期四: 11:30 – 15:00, 17:30 – 22:00","星期五: 11:30 – 15:00, 17:30 – 22:00",星期六: 11:30 – 22:00,星期日: 11:30 – 22:00,,https://maps.google.com/?cid=3954637283585927378,2,
安鳥居酒屋,111台灣台北市士林區德行西路103號,4.5,442,25.1042282,121.5210586,+886 2 2834 6877,星期一: 17:30 – 02:00,星期二: 17:30 – 02:00,星期三: 17:30 – 02:00,星期四: 17:30 – 02:00,星期五: 17:30 – 02:00,星期六: 17:30 – 02:00,星期日: 17:30 – 02:00,,https://maps.google.com/?cid=12155349923263185739,2,
陶板屋 新北投光明店,112台灣台北市北投區光明路217號2F,4.2,2273,25.1363016,121.5038081,+886 2 2894 0925,"星期一: 11:30 – 14:30, 17:30 – 22:00","星期二: 11:30 – 14:30, 17:30 – 21:00","星期三: 11:30 – 14:30, 17:30 – 22:00","星期四: 11:30 – 14:30, 17:30 – 22:00","星期五: 11:30 – 14:30, 17:30 – 22:00","星期六: 11:30 – 14:30, 17:30 – 22:00","星期日: 11:30 – 14:30, 17:30 – 22:00",TRUE,https://maps.google.com/?cid=9598975223399464290,2,
洋蔥 天母店,111台灣台北市士林區忠誠路二段132號,3.8,1249,25.114215,121.5320518,+886 2 2877 2591,星期一: 11:30 – 22:00,星期二: 11:30 – 22:00,星期三: 11:30 – 22:00,星期四: 11:30 – 22:00,星期五: 11:30 – 22:00,星期六: 11:30 – 22:00,星期日: 11:30 – 22:00,,https://maps.google.com/?cid=13886171824149062613,2,
すき家 SUKIYA 芝山店,111台灣台北市士林區福國路52號,3.9,1979,25.1021751,121.523664,+886 80 003 1131,星期一: 24 小時營業,星期二: 24 小時營業,星期三: 24 小時營業,星期四: 24 小時營業,星期五: 24 小時營業,星期六: 24 小時營業,星期日: 24 小時營業,,https://maps.google.com/?cid=12494227238366010423,1,
Farelie restaurant,114台灣台北市內湖區金龍路103號,4,140,25.0856297,121.5912017,+886 2 2795 2934,星期一: 11:00 – 21:30,星期二: 11:00 – 21:30,星期三: 11:00 – 21:30,星期四: 11:00 – 21:30,星期五: 11:00 – 21:30,星期六: 11:00 – 21:30,星期日: 11:00 – 21:30,,https://maps.google.com/?cid=6595867656834359186,2,
孝居酒屋,112台灣台北市北投區裕民六路114巷25號,4.4,353,25.114461,121.518395,+886 2 2822 7181,星期一: 休息,星期二: 17:30 – 23:30,星期三: 17:30 – 23:30,星期四: 17:30 – 23:30,星期五: 17:30 – 23:30,"星期六: 11:30 – 14:30, 17:30 – 21:30","星期日: 11:30 – 14:30, 17:30 – 21:30",,https://maps.google.com/?cid=6541267077728553078,2,
1010湘,111台灣台北市士林区天母东路68號A館7樓,4.1,614,25.1179204,121.5339295,+886 2 2875 2955,"星期一: 11:00 – 15:00, 17:00 – 21:30","星期二: 11:00 – 15:00, 17:00 – 21:30","星期三: 11:00 – 15:00, 17:00 – 21:30","星期四: 11:00 – 15:00, 17:00 – 21:30","星期五: 11:00 – 15:00, 17:00 – 21:30",星期六: 11:00 – 22:00,星期日: 11:00 – 22:00,,https://maps.google.com/?cid=4667609206783695697,2,
すき家 SUKIYA 士林店,111台灣台北市士林區中正路287號,4,1999,25.0947539,121.5240643,+886 80 003 1131,星期一: 24 小時營業,星期二: 24 小時營業,星期三: 24 小時營業,星期四: 24 小時營業,星期五: 24 小時營業,星期六: 24 小時營業,星期日: 24 小時營業,,https://maps.google.com/?cid=12096856539233977767,1,
一元海鮮餐廳,111台灣台北市士林區至誠路二段17號,4.1,153,25.102095,121.5299952,+886 2 2832 3550,"星期一: 11:00 – 14:00, 17:00 – 22:00","星期二: 11:00 – 14:00, 17:00 – 22:00","星期三: 11:00 – 14:00, 17:00 – 22:00","星期四: 11:00 – 14:00, 17:00 – 22:00","星期五: 11:00 – 14:00, 17:00 – 22:00","星期六: 11:00 – 14:00, 17:00 – 22:00","星期日: 11:00 – 14:00, 17:00 – 22:00",,https://maps.google.com/?cid=6029429962452313069,2,
如星閣‧康師傅法式餐廳,114台灣台北市內湖區金湖路28號,4,186,25.0829779,121.5964119,+886 2 2790 5229,星期一: 休息,"星期二: 11:30 – 14:30, 17:30 – 22:00","星期三: 11:30 – 14:30, 17:30 – 22:00","星期四: 11:30 – 14:30, 17:30 – 22:00","星期五: 11:30 – 14:30, 17:30 – 22:00","星期六: 11:30 – 14:30, 17:30 – 22:00","星期日: 11:30 – 14:30, 17:30 – 22:00",,https://maps.google.com/?cid=2110179616601893555,2,
鼎泰豐 天母店,111台灣台北市士林區中山北路六段77號B1,4.5,3668,25.105072,121.524475,+886 2 2833 8900,星期一: 10:30 – 20:30,星期二: 10:30 – 20:30,星期三: 10:30 – 20:30,星期四: 10:30 – 20:30,星期五: 10:30 – 21:00,星期六: 10:00 – 21:00,星期日: 10:00 – 20:30,TRUE,https://maps.google.com/?cid=17090229889021022318,2,
萬麗軒,111台灣台北市士林區中山北路五段470巷8號1樓,4.4,820,25.0931972,121.5291111,+886 2 8861 2389#11711,"星期一: 12:00 – 14:00, 18:00 – 21:00","星期二: 12:00 – 14:00, 18:00 – 21:00","星期三: 12:00 – 14:00, 18:00 – 21:00","星期四: 12:00 – 14:00, 18:00 – 21:00","星期五: 12:00 – 14:00, 18:00 – 21:00","星期六: 12:00 – 14:00, 18:00 – 21:00","星期日: 12:00 – 14:00, 18:00 – 21:00",TRUE,https://maps.google.com/?cid=10662775438582492006,,
SECOND FLOOR CAFE 貳樓西湖,114台灣台北市內湖區內湖路一段300號,4.3,5051,25.0818802,121.5687222,+886 2 2799 7922,星期一: 10:00 – 21:00,星期二: 10:00 – 21:00,星期三: 10:00 – 21:00,星期四: 10:00 – 21:00,星期五: 10:00 – 21:30,星期六: 09:00 – 21:30,星期日: 09:00 – 21:00,,https://maps.google.com/?cid=2691341605983531565,2,
CASADELLAPASTA義麵坊,10463台灣台北市中山區北安路621巷34號,3.8,1250,25.082827,121.5471249,+886 2 8509 5717,"星期一: 11:30 – 13:30, 17:30 – 20:30","星期二: 11:30 – 13:30, 17:30 – 20:30","星期三: 11:30 – 13:30, 17:30 – 20:30","星期四: 11:30 – 13:30, 17:30 – 20:30","星期五: 11:30 – 13:30, 17:30 – 20:30","星期六: 11:30 – 13:30, 17:30 – 20:30",星期日: 休息,,https://maps.google.com/?cid=13520774607891657312,2,
DiVino Enoteca,"No. 1, 中山北路六段450巷3弄士林區台北市台灣 111",4.4,179,25.1141389,121.5278027,+886 2 2873 7612,星期一: 18:00 – 22:00,星期二: 休息,星期三: 休息,星期四: 18:00 – 22:00,星期五: 18:00 – 22:00,星期六: 18:00 – 22:00,星期日: 18:00 – 22:00,TRUE,https://maps.google.com/?cid=12950759509603701657,,
方家小館,111台灣台北市士林區天母東路7號,4.1,1779,25.1182237,121.531388,+886 2 2872 8402,"星期一: 11:15 – 14:00, 17:00 – 21:00","星期二: 11:15 – 14:00, 17:00 – 21:00","星期三: 11:15 – 14:00, 17:00 – 21:00","星期四: 11:15 – 14:00, 17:00 – 21:00","星期五: 11:15 – 14:00, 17:00 – 21:00","星期六: 11:15 – 14:30, 17:00 – 21:00","星期日: 11:15 – 14:30, 17:00 – 21:00",TRUE,https://maps.google.com/?cid=618720695682120873,3,
番紅花印度美饌 Saffron Fine Indian Cuisine,111台灣台北市士林區天母東路38之6號,4.5,1407,25.117534,121.5329206,+886 2 2871 4842,星期一: 17:30 – 21:00,"星期二: 11:30 – 14:00, 17:30 – 21:00","星期三: 11:30 – 14:00, 17:30 – 21:00","星期四: 11:30 – 14:00, 17:30 – 21:00","星期五: 11:30 – 14:00, 17:30 – 21:30","星期六: 11:30 – 14:00, 17:30 – 21:30","星期日: 11:30 – 14:00, 17:30 – 21:00",TRUE,https://maps.google.com/?cid=15344505121951750950,3,
Tierra Casa Restaurant-台北內湖西餐廳 在地食材創意料理 價格訂位推薦 義式法式料理 2023人氣必吃美食 精品茶葉咖啡 聚餐親子餐廳 PTT Dcard,114台灣台北市內湖區金龍路177號,4.6,295,25.086785,121.588648,+886 2 2794 1193,星期一: 12:00 – 21:00,星期二: 休息,星期三: 休息,星期四: 12:00 – 21:00,星期五: 12:00 – 21:00,星期六: 12:00 – 21:00,星期日: 12:00 – 21:00,TRUE,https://maps.google.com/?cid=6827803653036932806,2,
Monsoon（reservations only),111台灣台北市士林區文林路126號3樓,4.9,52,25.0884476,121.5264987,+886 921 991 423,星期一: 12:00 – 21:00,星期二: 休息,星期三: 休息,星期四: 休息,星期五: 12:00 – 21:00,星期六: 12:00 – 21:00,星期日: 12:00 – 21:00,TRUE,https://maps.google.com/?cid=6774960395027427645,,
凱莉餐廳,111台灣台北市士林區凱旋路61巷2弄2號,4.1,552,25.1360505,121.5416752,+886 2 2862 3232,星期一: 11:00 – 17:00,星期二: 11:00 – 17:00,星期三: 11:00 – 17:00,星期四: 休息,星期五: 11:00 – 17:00,星期六: 10:00 – 17:30,星期日: 10:00 – 17:30,,https://maps.google.com/?cid=11911136165226883537,2,
興蓬萊台菜海鮮餐廳,111台灣台北市士林區中山北路七段55號,4.2,2716,25.1204659,121.5309519,+886 2 2877 1169,星期一: 休息,"星期二: 11:00 – 14:00, 17:00 – 21:00","星期三: 11:00 – 14:00, 17:00 – 21:00","星期四: 11:00 – 14:00, 17:00 – 21:00","星期五: 11:00 – 14:00, 17:00 – 21:00","星期六: 11:00 – 14:30, 17:00 – 21:00","星期日: 11:00 – 14:30, 17:00 – 21:00",TRUE,https://maps.google.com/?cid=12358465361079577174,2,
ACME｜Cafe Bar & Restaurant 臺北表演藝術中心,111台灣台北市士林区剑潭路1號7樓,4.1,2917,25.0851274,121.5243662,+886 2 6617 7575,星期一: 休息,星期二: 12:00 – 21:00,星期三: 12:00 – 21:00,星期四: 12:00 – 21:00,星期五: 12:00 – 21:00,星期六: 12:00 – 21:00,星期日: 12:00 – 21:00,TRUE,https://maps.google.com/?cid=6096500173198889667,2,
蓬萊台菜餐廳,11252台灣台北市北投區中和街238號1F,4.2,1215,25.1394509,121.501449,+886 2 2891 2778,星期一: 休息,"星期二: 11:00 – 14:00, 17:00 – 21:00","星期三: 11:00 – 14:00, 17:00 – 21:00","星期四: 11:00 – 14:00, 17:00 – 21:00","星期五: 11:00 – 14:00, 17:00 – 21:00","星期六: 11:00 – 14:00, 17:00 – 21:00","星期日: 11:00 – 14:00, 17:00 – 21:00",,https://maps.google.com/?cid=3055704960516571513,,
土三寒六讚岐烏龍麵,111台灣台北市士林區中山北路六段229號,4,1063,25.1088852,121.525013,+886 2 8866 3436,星期一: 休息,"星期二: 11:36 – 13:36, 17:00 – 19:36","星期三: 11:36 – 13:36, 17:00 – 19:36","星期四: 11:36 – 13:36, 17:00 – 19:36","星期五: 11:36 – 13:36, 17:00 – 19:36","星期六: 11:36 – 13:36, 17:00 – 19:36",星期日: 休息,FALSE,https://maps.google.com/?cid=6574707966680450809,2,
菁豔景觀餐廳,111台灣台北市士林區菁山路101巷71弄16號,4.3,473,25.1532719,121.5580026,+886 2 2862 5116,星期一: 11:00 – 21:00,星期二: 11:00 – 21:00,星期三: 11:00 – 21:00,星期四: 11:00 – 21:00,星期五: 11:00 – 21:00,星期六: 11:00 – 21:00,星期日: 11:00 – 21:00,TRUE,https://maps.google.com/?cid=13971305350118011610,2,
延平牛肉麵,111台灣台北市士林區延平北路六段150巷1號,3.9,674,25.0896641,121.5069212,,"星期一: 11:30 – 15:00, 17:00 – 20:30","星期二: 11:30 – 15:00, 17:00 – 20:30","星期三: 11:30 – 15:00, 17:00 – 20:30",星期四: 休息,"星期五: 11:30 – 15:00, 17:00 – 20:30","星期六: 11:30 – 15:00, 17:00 – 20:30","星期日: 11:30 – 15:00, 17:00 – 20:30",,https://maps.google.com/?cid=2620501505974262309,1,
台之最餐廳,111台灣台北市士林區愛富一街2號,4.6,469,25.1384239,121.5460147,+886 2 2862 8585,"星期一: 11:00 – 14:00, 17:00 – 20:00","星期二: 11:00 – 14:00, 17:00 – 20:00","星期三: 11:00 – 14:00, 17:00 – 20:00","星期四: 11:00 – 14:00, 17:00 – 20:00","星期五: 11:00 – 14:00, 17:00 – 20:00","星期六: 11:00 – 14:00, 17:00 – 20:00","星期日: 11:00 – 14:00, 17:00 – 20:00",,https://maps.google.com/?cid=4398459009384452831,2,
高麗味 天母店,111台灣台北市士林區忠誠路二段152號,3.9,783,25.114977,121.5326635,+886 2 2873 6995,"星期一: 11:30 – 14:00, 17:00 – 22:00","星期二: 11:30 – 14:00, 17:00 – 22:00","星期三: 11:30 – 14:00, 17:00 – 22:00","星期四: 11:30 – 14:00, 17:00 – 22:00","星期五: 11:30 – 14:00, 17:00 – 22:00","星期六: 11:30 – 14:30, 17:00 – 22:00","星期日: 11:30 – 14:30, 17:00 – 22:00",,https://maps.google.com/?cid=10059287705864434541,2,
三根居酒屋,111台灣台北市士林區福國路32號,4.9,88,25.1022864,121.524305,+886 2 2832 1278,星期一: 休息,星期二: 17:30 – 02:00,星期三: 17:30 – 02:00,星期四: 17:30 – 02:00,星期五: 17:30 – 02:00,星期六: 17:30 – 02:00,星期日: 17:30 – 02:00,,https://maps.google.com/?cid=13228098723737832600,,
Lazy Point Restaurant & Bar,11493台灣台北市內湖區洲子街78號,4.3,1026,25.0795694,121.5718593,+886 2 8751 5509,星期一: 休息,星期二: 11:30 – 00:00,星期三: 11:30 – 00:00,星期四: 11:30 – 00:00,星期五: 11:30 – 01:00,星期六: 11:30 – 01:00,星期日: 休息,TRUE,https://maps.google.com/?cid=8513410161964912300,2,
麥當勞 台北中山北餐廳,111台灣台北市士林區中山北路六段152號,3.4,207,25.1066838,121.5251413,+886 2 2831 0389,星期一: 06:00 – 00:00,星期二: 06:00 – 00:00,星期三: 06:00 – 00:00,星期四: 06:00 – 00:00,星期五: 06:00 – 00:00,星期六: 06:00 – 00:00,星期日: 06:00 – 00:00,,https://maps.google.com/?cid=8614504554928663470,1,
牛坊牛肉麵,111台灣台北市士林區大南路237號,4.2,232,25.0883252,121.5207993,+886 2 2881 5584,星期一: 11:30 – 20:30,星期二: 11:30 – 20:30,星期三: 11:30 – 20:30,星期四: 11:30 – 20:30,星期五: 11:30 – 20:30,星期六: 11:30 – 20:30,星期日: 休息,,https://maps.google.com/?cid=2612279552364526036,,
素食早餐店,111台灣台北市士林區福華路157巷17號,4.6,182,25.1035919,121.5215378,+886 2 2836 7218,星期一: 05:30 – 12:00,星期二: 05:30 – 12:00,星期三: 05:30 – 12:00,星期四: 05:30 – 12:00,星期五: 05:30 – 12:00,星期六: 05:30 – 12:00,星期日: 休息,TRUE,https://maps.google.com/?cid=6984300599981393458,1,
永昌蕃茄牛肉麵,10462台灣台北市中山區大直街34巷2號,4.2,245,25.0815838,121.5461032,+886 2 2532 7738,"星期一: 11:00 – 14:00, 17:00 – 20:20","星期二: 11:00 – 14:00, 17:00 – 20:20","星期三: 11:00 – 14:00, 17:00 – 20:20","星期四: 11:00 – 14:00, 17:00 – 20:20","星期五: 11:00 – 14:00, 17:00 – 20:20","星期六: 11:00 – 14:00, 17:00 – 20:20",星期日: 休息,,https://maps.google.com/?cid=648429982724984591,1,
小麥田早餐店,111台灣台北市士林區雨聲街48號,4.5,82,25.1026653,121.5289482,+886 2 2832 0600,星期一: 06:00 – 11:30,星期二: 06:00 – 11:30,星期三: 06:00 – 11:30,星期四: 06:00 – 11:30,星期五: 06:00 – 11:30,星期六: 06:00 – 11:30,星期日: 休息,,https://maps.google.com/?cid=14960428426330146798,1,
阿里郎村落,111台灣台北市士林區福華路149號,4,835,25.1033049,121.5221212,+886 2 2838 3228,星期一: 休息,"星期二: 11:30 – 14:00, 17:00 – 21:00","星期三: 11:30 – 14:00, 17:00 – 21:00","星期四: 11:30 – 14:00, 17:00 – 21:00","星期五: 11:30 – 14:00, 17:00 – 21:00","星期六: 11:30 – 14:00, 17:00 – 21:00","星期日: 11:30 – 14:00, 17:00 – 21:00",,https://maps.google.com/?cid=2174650153824195674,2,
大湖餐館 內湖,114台灣台北市內湖區內湖路二段103巷76號,4.3,1032,25.0830556,121.5808333,+886 2 2627 0675,"星期一: 11:00 – 14:00, 17:00 – 21:00","星期二: 11:00 – 14:00, 17:00 – 21:00","星期三: 11:00 – 14:00, 17:00 – 21:00","星期四: 11:00 – 14:00, 17:00 – 21:00","星期五: 11:00 – 14:00, 17:00 – 21:00","星期六: 11:00 – 14:00, 17:00 – 21:00","星期日: 11:00 – 14:00, 17:00 – 21:00",TRUE,https://maps.google.com/?cid=15623358981910154483,2,
早餐店,112台灣台北市北投區崇仁路一段140號,4.5,39,25.1242404,121.5019127,+886 2 2891 5835,星期一: 06:00 – 12:00,星期二: 06:00 – 12:00,星期三: 06:00 – 12:00,星期四: 06:00 – 12:00,星期五: 06:00 – 12:00,星期六: 06:00 – 12:00,星期日: 08:00 – 12:00,,https://maps.google.com/?cid=15882376407881830377,,
牛肉麵,114台灣台北市內湖區金龍路236 號,4.4,82,25.0884918,121.5864432,+886 2 2794 2878,星期一: 11:00 – 19:30,星期二: 11:00 – 19:30,星期三: 11:00 – 19:30,星期四: 11:00 – 19:30,星期五: 11:00 – 19:30,星期六: 休息,星期日: 休息,,https://maps.google.com/?cid=6677661079885394956,,
温德德式烘焙餐館 (天母店),111台灣台北市士林區德行西路5號,4.4,2305,25.1063958,121.5244816,+886 2 2831 4415,星期一: 休息,星期二: 11:30 – 21:00,星期三: 11:30 – 21:00,星期四: 11:30 – 21:00,星期五: 11:30 – 21:00,星期六: 11:30 – 20:00,星期日: 11:30 – 21:00,TRUE,https://maps.google.com/?cid=6208534812169060684,3,
鮮堡早餐店,112台灣台北市北投區泉源路28-4號,4.3,21,25.1395879,121.506399,+886 2 2897 1078,星期一: 06:30 – 12:00,星期二: 06:30 – 12:00,星期三: 06:30 – 12:00,星期四: 06:30 – 12:00,星期五: 06:30 – 12:00,星期六: 06:30 – 12:30,星期日: 休息,,https://maps.google.com/?cid=145717025952556360,,
妙香早餐店,112台灣台北市北投區明德路120號,4.2,19,25.1100041,121.5203878,+886 2 2822 6542,星期一: 05:00 – 11:00,星期二: 06:00 – 11:55,星期三: 06:00 – 11:55,星期四: 06:00 – 11:55,星期五: 06:00 – 11:55,星期六: 06:00 – 11:55,星期日: 休息,,https://maps.google.com/?cid=5265978202122129794,,
七窟溫泉餐廳,112台灣台北市北投區湖底路7之1號,4,663,25.1496933,121.5341002,+886 2 2861 1135,星期一: 11:00 – 21:00,星期二: 11:00 – 21:00,星期三: 11:00 – 21:00,星期四: 11:00 – 21:00,星期五: 11:00 – 21:00,星期六: 11:00 – 21:00,星期日: 11:00 – 21:00,,https://maps.google.com/?cid=5686302237316065261,2,
豪記專業牛肉麵,111台灣台北市士林區承德路四段40巷18號,4.1,429,25.0808658,121.5219269,+886 2 2886 1317,星期一: 休息,星期二: 09:00 – 20:30,星期三: 09:00 – 20:30,星期四: 09:00 – 20:30,星期五: 09:00 – 20:30,星期六: 09:00 – 20:30,星期日: 09:00 – 20:30,,https://maps.google.com/?cid=12960662686380919426,1,
大豐花園餐廳,111台灣台北市士林區至善路三段230號,3.9,381,25.119626,121.581818,+886 2 2841 2046,星期一: 11:00 – 21:00,星期二: 11:00 – 21:00,星期三: 11:00 – 21:00,星期四: 11:00 – 21:00,星期五: 11:00 – 21:00,星期六: 11:00 – 21:00,星期日: 11:00 – 21:00,,https://maps.google.com/?cid=15824438654277731644,2,
恩典早餐店,112台灣台北市北投區懷德街105巷2號,4.3,137,25.1152272,121.5198726,+886 2 2820 8507,星期一: 05:30 – 14:00,星期二: 05:30 – 14:00,星期三: 05:30 – 14:00,星期四: 05:30 – 14:30,星期五: 05:30 – 14:00,星期六: 17:30 – 00:00,星期日: 00:00 – 14:00,,https://maps.google.com/?cid=9612013845516555260,1,
銀座日本料理,111台灣台北市士林區德行東路101號,4.4,1247,25.1077333,121.5280683,+886 2 2832 6501,星期一: 休息,"星期二: 11:30 – 14:00, 17:00 – 21:00","星期三: 11:30 – 14:00, 17:00 – 21:00","星期四: 11:30 – 14:00, 17:00 – 21:00","星期五: 11:30 – 14:00, 17:00 – 21:00","星期六: 11:30 – 14:00, 17:00 – 21:00","星期日: 11:30 – 14:00, 17:00 – 21:00",,https://maps.google.com/?cid=12112746793417169395,3,
屋頂上,111台灣台北市士林區凱旋路61巷4弄33號,4.2,6898,25.1334811,121.5394123,+886 2 2862 2255,星期一: 17:00 – 03:00,星期二: 17:00 – 03:00,星期三: 17:00 – 03:00,星期四: 17:00 – 03:00,星期五: 17:00 – 03:00,星期六: 17:00 – 03:00,星期日: 17:00 – 03:00,,https://maps.google.com/?cid=15108949339823058227,3,
莎諾西餐,112台灣台北市北投區天母西路105號,4.5,1977,25.1188304,121.5237126,+886 2 2876 5399,星期一: 11:00 – 21:30,星期二: 11:00 – 21:30,星期三: 11:00 – 21:30,星期四: 11:00 – 21:30,星期五: 11:00 – 21:30,星期六: 11:00 – 21:30,星期日: 11:00 – 21:30,,https://maps.google.com/?cid=17390365114278319585,2,
草山夜未眠景觀餐廳,111台灣台北市士林區東山路25巷81弄99號,4.4,7024,25.1340198,121.5353772,+886 2 2862 3751,星期一: 16:00 – 03:00,星期二: 16:00 – 03:00,星期三: 16:00 – 03:00,星期四: 16:00 – 03:00,星期五: 16:00 – 03:00,星期六: 15:00 – 03:00,星期日: 15:00 – 03:00,,https://maps.google.com/?cid=12362629136099441906,2,
月湖歐式餐廳,111台灣台北市士林區忠誠路二段50巷6號,4.4,385,25.110865,121.530114,+886 2 2838 1478,"星期一: 11:30 – 14:30, 18:00 – 21:30","星期二: 11:30 – 14:30, 18:00 – 21:30","星期三: 11:30 – 14:30, 18:00 – 21:30","星期四: 11:30 – 14:30, 18:00 – 21:30","星期五: 11:30 – 14:30, 18:00 – 21:30","星期六: 11:30 – 14:30, 18:00 – 21:30","星期日: 11:30 – 14:30, 18:00 – 21:30",,https://maps.google.com/?cid=141927194645818832,3,
Patio Gourmet Burgers & Craft Beer,111台灣台北市士林區中山北路六段431號,4.2,241,25.1140823,121.5270153,+886 2 2871 8807,星期一: 19:00 – 03:00,星期二: 休息,星期三: 19:00 – 03:00,星期四: 19:00 – 03:00,星期五: 19:00 – 03:00,星期六: 19:00 – 03:00,星期日: 19:00 – 03:00,,https://maps.google.com/?cid=1799368045944922339,2,
吳家牛肉麵店,11263台灣台北市北投區中央北路一段224號,4,5217,25.1362641,121.4970666,+886 2 2892 3686,星期一: 11:00 – 22:00,星期二: 11:00 – 22:00,星期三: 11:00 – 22:00,星期四: 休息,星期五: 11:00 – 22:00,星期六: 11:00 – 22:00,星期日: 11:00 – 22:00,,https://maps.google.com/?cid=17959385427959991020,1,
Chili's Grill & Bar 美式休閒餐廳 - 天母店,111台灣台北市士林區忠誠路二段55號2樓,4.3,1420,25.1123175,121.5317816,+886 2 2875 4838,"星期一: 11:30 – 14:30, 17:30 – 21:30","星期二: 11:30 – 14:30, 17:30 – 21:30","星期三: 11:30 – 14:30, 17:30 – 21:30","星期四: 11:30 – 14:30, 17:30 – 21:30","星期五: 11:30 – 14:30, 17:30 – 22:00",星期六: 11:30 – 22:00,星期日: 11:30 – 21:30,,https://maps.google.com/?cid=3577329955458540761,2,
仙客來海鮮庭園餐廳,112台灣台北市北投區東華街二段114號,4,2102,25.1187792,121.5129538,+886 2 2820 4658,星期一: 16:30 – 02:00,星期二: 16:30 – 02:00,星期三: 16:30 – 02:00,星期四: 16:00 – 02:00,星期五: 16:30 – 02:00,星期六: 16:30 – 02:00,星期日: 16:30 – 02:00,,https://maps.google.com/?cid=1039514009473975877,2,
The Pita Bar Taipei,111台灣台北市士林區中山北路六段476號,4.5,517,25.1148952,121.5278451,+886 2 2874 9237,星期一: 11:00 – 20:30,星期二: 11:00 – 20:30,星期三: 11:00 – 20:30,星期四: 11:00 – 20:30,星期五: 11:00 – 20:30,星期六: 11:00 – 20:30,星期日: 11:00 – 20:30,,https://maps.google.com/?cid=17457638608653062479,2,
品欣牛肉麵,112台灣台北市北投區中央北路二段62-1號,4.3,139,25.1373529,121.4947219,+886 2 2893 7238,星期一: 11:00 – 23:00,星期二: 11:00 – 23:00,星期三: 11:00 – 23:00,星期四: 11:00 – 23:00,星期五: 11:00 – 23:00,星期六: 11:00 – 23:00,星期日: 11:00 – 23:00,,https://maps.google.com/?cid=4739332973689710215,,
ZEST CAFE' 甜橙風味 35休閒景觀餐廳,111台灣台北市士林區中山北路七段232巷1弄72號,3.5,685,25.1328299,121.5362179,+886 2 2862 0588,星期一: 17:00 – 03:00,星期二: 17:00 – 03:00,星期三: 17:00 – 03:00,星期四: 17:00 – 03:00,星期五: 17:00 – 03:00,星期六: 16:00 – 03:00,星期日: 16:00 – 03:00,,https://maps.google.com/?cid=3287898915001890575,2,
藏馬居酒屋,112台灣台北市北投區大興街20號,4.9,265,25.1298486,121.4983844,+886 2 2897 0606,星期一: 18:00 – 00:00,星期二: 18:00 – 00:00,星期三: 18:00 – 00:00,星期四: 18:00 – 00:00,星期五: 18:00 – 00:00,星期六: 18:00 – 00:00,星期日: 18:00 – 00:00,TRUE,https://maps.google.com/?cid=8374593166233758138,,
大邱大叔（韓大叔）,11148台灣台北市士林區忠誠路一段91號,4.1,1074,25.104646,121.528231,+886 2 2838 3703,"星期一: 11:30 – 14:30, 17:00 – 21:30","星期二: 11:30 – 14:30, 17:00 – 21:30","星期三: 11:30 – 14:30, 17:00 – 21:30","星期四: 11:30 – 14:30, 17:00 – 21:30","星期五: 11:30 – 14:30, 17:00 – 21:30","星期六: 11:30 – 14:30, 17:00 – 21:00","星期日: 11:30 – 14:30, 17:00 – 21:00",,https://maps.google.com/?cid=8653406549705892253,2,
江媽媽美食(北投市場),112台灣台北市北投區新市街8號,3.8,21,25.1316646,121.5019809,+886 932 901 409,星期一: 休息,星期二: 16:00 – 22:00,星期三: 16:00 – 22:00,星期四: 16:00 – 22:00,星期五: 16:00 – 22:00,星期六: 16:00 – 22:00,星期日: 16:00 – 22:00,,https://maps.google.com/?cid=18397222693020697076,,
鬼店山產 約會景觀餐廳,111台灣台北市士林區中山北路七段219巷163號,4.1,108,25.132871,121.5325787,+886 2 2874 9066,星期一: 10:30 – 21:30,星期二: 10:30 – 21:30,星期三: 10:30 – 21:30,星期四: 10:30 – 21:30,星期五: 10:30 – 21:30,星期六: 10:30 – 21:30,星期日: 10:30 – 21:30,FALSE,https://maps.google.com/?cid=9097693103951273975,,
忠誠牛肉麵,111台灣台北市士林區德行東路80號,4.4,2660,25.1073276,121.5275642,+886 2 2831 8157,星期一: 休息,星期二: 11:00 – 19:30,星期三: 11:00 – 19:30,星期四: 11:00 – 19:30,星期五: 11:00 – 19:30,星期六: 11:00 – 19:30,星期日: 休息,,https://maps.google.com/?cid=17539520431804986176,1,
上享庭園餐廳,112台灣台北市北投區中央北路一段228巷1弄4號,4.3,1033,25.1366458,121.4970598,+886 2 2894 1808,星期一: 休息,"星期二: 11:00 – 14:00, 17:00 – 21:00","星期三: 11:00 – 14:00, 17:00 – 21:00","星期四: 11:00 – 14:00, 17:00 – 21:00","星期五: 11:00 – 14:00, 17:00 – 21:00","星期六: 11:00 – 14:00, 17:00 – 21:00","星期日: 11:00 – 14:00, 17:00 – 21:00",TRUE,https://maps.google.com/?cid=7800316011658239511,2,
希臘慕沙卡餐廳mussaka,111台灣台北市士林區天母東路50巷10弄4號,4.6,332,25.1175413,121.5333472,+886 2 2871 8985,"星期一: 11:30 – 15:00, 17:00 – 20:30","星期二: 11:30 – 15:00, 17:00 – 20:30",星期三: 休息,"星期四: 11:30 – 15:00, 17:00 – 20:30",星期五: 11:30 – 20:30,"星期六: 11:30 – 17:00, 17:08 – 20:30","星期日: 11:30 – 15:00, 17:00 – 20:30",,https://maps.google.com/?cid=2414872263153441038,2,
松竹園,11111台灣台北市士林區永公路546號,4.3,3940,25.1398123,121.5676159,+886 2 2861 6261,"星期一: 11:30 – 16:00, 17:00 – 20:30","星期二: 11:30 – 16:00, 17:00 – 20:30","星期三: 11:30 – 16:00, 17:00 – 20:30","星期四: 11:30 – 16:00, 17:00 – 20:30","星期五: 11:30 – 16:00, 17:00 – 21:00","星期六: 11:00 – 16:00, 17:00 – 21:00","星期日: 11:00 – 16:00, 17:00 – 21:00",,https://maps.google.com/?cid=17032556407449438601,2,
多桑串燒居酒屋,111台灣台北市士林區雨聲街185號,4.1,402,25.102038,121.533719,+886 2 2836 2221,星期一: 16:00 – 01:00,星期二: 16:00 – 01:00,星期三: 16:00 – 01:00,星期四: 16:00 – 01:00,星期五: 16:00 – 01:00,星期六: 16:00 – 01:00,星期日: 16:00 – 01:00,,https://maps.google.com/?cid=8951939781698402212,2,
天母故事 輕食庭園餐廳,11151台灣台北市士林區中山北路七段219巷163號,1,1,25.132871,121.5325787,+886 2 2874 9066,星期一: 10:30 – 21:30,星期二: 10:30 – 21:30,星期三: 10:30 – 21:30,星期四: 10:30 – 21:30,星期五: 10:30 – 21:30,星期六: 10:30 – 21:30,星期日: 10:30 – 21:30,FALSE,https://maps.google.com/?cid=3536811619937172238,,
麥當勞-台北石牌餐廳,112台灣台北市北投區石牌路二段126號,3.7,2244,25.1178786,121.5173817,+886 2 2820 1362,星期一: 06:00 – 00:00,星期二: 06:00 – 00:00,星期三: 06:00 – 00:00,星期四: 06:00 – 00:00,星期五: 06:00 – 00:00,星期六: 06:00 – 00:00,星期日: 06:00 – 00:00,FALSE,https://maps.google.com/?cid=3483688518582431449,1,
麥當勞-台北中央餐廳,112台灣台北市北投區中央北路四段534號,3.6,1817,25.1280896,121.4678115,+886 2 2895 2638,星期一: 24 小時營業,星期二: 24 小時營業,星期三: 24 小時營業,星期四: 24 小時營業,星期五: 24 小時營業,星期六: 24 小時營業,星期日: 24 小時營業,,https://maps.google.com/?cid=7002651266870747188,1,
McCafé咖啡-台北德行店,111台灣台北市士林區德行東路227號,4,36,25.1094653,121.5330289,+886 2 2836 2779,星期一: 07:00 – 22:00,星期二: 07:00 – 22:00,星期三: 07:00 – 22:00,星期四: 07:00 – 22:00,星期五: 07:00 – 22:00,星期六: 07:00 – 22:00,星期日: 07:00 – 22:00,,https://maps.google.com/?cid=4570925431368364030,,
McCafé咖啡-台北石牌店,112台灣台北市北投區石牌路二段126號,4.3,72,25.117879,121.5173659,+886 2 2820 1362,星期一: 07:00 – 22:00,星期二: 07:00 – 22:00,星期三: 07:00 – 22:00,星期四: 07:00 – 22:00,星期五: 07:00 – 22:00,星期六: 07:00 – 22:00,星期日: 07:00 – 22:00,,https://maps.google.com/?cid=15616590295342038374,,
INDOKO SHIPAI 印尼商店石牌店,"No, No. 11振興街北投區台北市台灣 112",4.8,49,25.1186142,121.5219955,+886 2 2822 0661,星期一: 09:00 – 21:00,星期二: 09:00 – 21:00,星期三: 09:00 – 21:00,星期四: 09:00 – 21:00,星期五: 09:00 – 21:00,星期六: 09:00 – 21:00,星期日: 09:00 – 21:00,,https://maps.google.com/?cid=2565038451883773818,,
山園野菜餐廳,112台灣台北市北投區竹子湖路55-12號号 旁,4,1176,25.1772765,121.5306482,+886 2 2861 1558,星期一: 11:00 – 19:30,星期二: 休息,星期三: 11:00 – 19:30,星期四: 11:00 – 19:30,星期五: 11:00 – 19:30,星期六: 11:00 – 19:30,星期日: 11:00 – 19:30,TRUE,https://maps.google.com/?cid=1044132005429205590,2,
老倉庫,111台灣台北市士林區福華路146號,4.4,3167,25.1033725,121.5227565,+886 2 2833 6908,星期一: 10:00 – 21:00,星期二: 10:00 – 21:00,星期三: 10:00 – 21:00,星期四: 10:00 – 21:00,星期五: 10:00 – 21:00,星期六: 10:00 – 21:00,星期日: 10:00 – 21:00,TRUE,https://maps.google.com/?cid=1843009170984371856,2,
茉莉漢堡,111台灣台北市士林區天玉街38巷15號,3.9,1518,25.1199403,121.5292432,+886 2 2872 5357,星期一: 10:30 – 20:30,星期二: 10:30 – 20:30,星期三: 10:30 – 20:30,星期四: 10:30 – 20:30,星期五: 10:30 – 21:00,星期六: 08:30 – 21:00,星期日: 08:30 – 20:30,,https://maps.google.com/?cid=3503527087440852918,2,
Just Grill,110台灣台北市信義區松高路11號誠品信義旗艦店6F,4.3,1956,25.0397197,121.5658739,+886 2 8786 6099,"星期一: 12:00 – 14:30, 18:00 – 21:30","星期二: 12:00 – 14:30, 18:00 – 21:30","星期三: 12:00 – 14:30, 18:00 – 21:30","星期四: 12:00 – 14:30, 18:00 – 21:30","星期五: 12:00 – 14:30, 18:00 – 21:30","星期六: 11:00 – 15:30, 17:00 – 21:30","星期日: 11:00 – 15:30, 17:00 – 21:30",TRUE,https://maps.google.com/?cid=14943106385761657639,3,
Café&Meal MUJI 統一時代店,110台灣台北市信義區忠孝東路五段8號B2F,3.7,806,25.0405836,121.5654798,+886 2 2345 8551,星期一: 11:00 – 21:30,星期二: 11:00 – 21:30,星期三: 11:00 – 21:30,星期四: 11:00 – 21:30,星期五: 11:00 – 22:00,星期六: 11:00 – 22:00,星期日: 11:00 – 21:30,,https://maps.google.com/?cid=11924104110035498762,2,
Old Seat Restaurant Cafe 川酒.咖啡,106台灣台北市大安區忠孝東路四段101巷29號1樓,4.6,739,25.0429867,121.5481849,+886 2 2731 0459,星期一: 休息,星期二: 12:00 – 23:30,星期三: 12:00 – 23:30,星期四: 12:00 – 23:30,星期五: 12:00 – 00:00,星期六: 12:00 – 00:00,星期日: 12:00 – 23:30,,https://maps.google.com/?cid=15871767674285782494,,
Bottless 非瓶,105台灣台北市松山區慶城街26-1號,4.5,1701,25.0538864,121.5458825,+886 2 2514 0089,"星期一: 11:00 – 15:00, 17:30 – 22:30","星期二: 11:00 – 15:00, 17:30 – 22:30","星期三: 11:00 – 15:00, 17:30 – 22:30","星期四: 11:00 – 15:00, 17:30 – 22:30","星期五: 11:00 – 15:00, 17:30 – 22:30","星期六: 11:00 – 15:00, 17:30 – 22:30","星期日: 11:00 – 15:00, 17:30 – 22:30",FALSE,https://maps.google.com/?cid=14007378354904721535,3,
GYUU NIKU ステーキ專門店,110台灣台北市信義區忠孝東路五段412-6號,4.7,6582,25.0404527,121.5752978,+886 2 8780 0002,"星期一: 11:30 – 15:00, 17:00 – 22:00","星期二: 11:30 – 15:00, 17:00 – 22:00","星期三: 11:30 – 15:00, 17:00 – 22:00","星期四: 11:30 – 15:00, 17:00 – 22:00","星期五: 11:30 – 15:00, 17:00 – 22:00","星期六: 11:30 – 15:00, 17:00 – 22:00","星期日: 11:30 – 15:00, 17:00 – 22:00",,https://maps.google.com/?cid=5725664519961950829,2,
Dream.K Restaurant,105台灣台北市松山區南京東路五段250巷36弄19號,4.3,121,25.0497674,121.5671355,+886 2 2747 0777,星期一: 20:00 – 03:00,星期二: 20:00 – 03:00,星期三: 20:00 – 03:00,星期四: 20:00 – 03:00,星期五: 20:00 – 04:00,星期六: 20:00 – 04:00,星期日: 20:00 – 03:00,,https://maps.google.com/?cid=3347250734602065798,,
涓豆腐 松山店,110台灣台北市信義區松山路11號號 2 樓,4.2,1362,25.049227,121.5787168,+886 2 2747 3088,"星期一: 11:00 – 14:30, 17:00 – 21:30","星期二: 11:00 – 14:30, 17:00 – 21:30","星期三: 11:00 – 14:30, 17:00 – 21:30","星期四: 11:00 – 14:30, 17:00 – 21:30","星期五: 11:00 – 14:30, 17:00 – 22:00","星期六: 11:00 – 15:30, 17:00 – 22:00","星期日: 11:00 – 15:30, 17:00 – 21:30",,https://maps.google.com/?cid=4921312337800608841,2,
The Thali 塔哩印度料理,114台灣台北市內湖區民權東路六段312號,4.3,1193,25.0729605,121.6062185,+886 2 2630 5980,"星期一: 11:30 – 14:30, 17:30 – 21:30",星期二: 休息,"星期三: 11:30 – 14:30, 17:30 – 21:30","星期四: 11:30 – 14:30, 17:30 – 21:30","星期五: 11:30 – 14:30, 17:30 – 21:30","星期六: 11:30 – 14:30, 17:30 – 21:30","星期日: 11:30 – 14:30, 17:30 – 21:30",TRUE,https://maps.google.com/?cid=17165787394652670630,2,
小串堂居酒屋,106台灣台北市大安區忠孝東路四段223巷69號,4.7,1156,25.0437574,121.5529265,+886 2 2778 1228,星期一: 休息,星期二: 18:00 – 23:00,星期三: 18:00 – 23:00,星期四: 18:00 – 23:00,星期五: 18:00 – 23:00,星期六: 18:00 – 23:00,星期日: 休息,,https://maps.google.com/?cid=7616720705728218775,2,
分享餐廳,110台灣台北市信義區松仁路28號B2,4.2,231,25.0396219,121.567641,+886 2 8729 2700,星期一: 11:00 – 21:30,星期二: 11:00 – 21:30,星期三: 11:00 – 21:30,星期四: 11:00 – 21:30,星期五: 11:00 – 22:00,星期六: 11:00 – 22:00,星期日: 11:00 – 21:30,TRUE,https://maps.google.com/?cid=16694148075070053121,2,
YAYOI彌生軒 南京三民店,105台灣台北市松山區南京東路五段92.94.96號1樓,4,1276,25.051258,121.561706,+886 2 2747 8558,"星期一: 11:30 – 15:00, 17:30 – 22:00","星期二: 11:30 – 15:00, 17:30 – 22:00","星期三: 11:30 – 15:00, 17:30 – 22:00","星期四: 11:30 – 15:00, 17:30 – 22:00","星期五: 11:30 – 15:00, 17:30 – 22:00",星期六: 11:30 – 22:00,星期日: 11:30 – 22:00,,https://maps.google.com/?cid=15693159383636389524,2,
波諾義大利料理-台北店,114台灣台北市內湖區大湖街168巷16號,4.1,689,25.0804786,121.6025071,+886 2 2796 0508,"星期一: 12:00 – 14:30, 18:00 – 22:00",星期二: 休息,"星期三: 12:00 – 14:30, 18:00 – 22:00","星期四: 12:00 – 14:30, 18:00 – 22:00","星期五: 12:00 – 14:30, 18:00 – 22:00","星期六: 11:30 – 15:30, 17:30 – 21:30","星期日: 11:30 – 15:30, 17:30 – 21:30",TRUE,https://maps.google.com/?cid=11050957075080473287,,
饕酒窩居酒屋,105034台灣台北市松山區吉祥路45號,4.5,177,25.0501215,121.5626542,+886 2 2711 7171,"星期一: 11:30 – 14:00, 18:00 – 00:00","星期二: 11:30 – 14:00, 18:00 – 00:00","星期三: 11:30 – 14:00, 18:00 – 00:00","星期四: 11:30 – 14:00, 18:00 – 00:00","星期五: 11:30 – 14:00, 18:00 – 00:00","星期六: 11:00 – 14:00, 18:00 – 00:00","星期日: 11:00 – 14:00, 18:00 – 00:00",,https://maps.google.com/?cid=5555447409821618587,2,
すき家 SUKIYA 松山站前店,110台灣台北市信義區市民大道六段312號,4,1476,25.048786,121.5793677,+886 80 003 1131,星期一: 24 小時營業,星期二: 24 小時營業,星期三: 24 小時營業,星期四: 24 小時營業,星期五: 24 小時營業,星期六: 24 小時營業,星期日: 24 小時營業,,https://maps.google.com/?cid=17331096059897133773,1,
大和日本料理忠孝店,106台灣台北市大安區忠孝東路四段312號,4.1,1636,25.0408021,121.5568737,+886 2 2781 1869,"星期一: 11:15 – 14:00, 17:00 – 21:30","星期二: 11:15 – 14:00, 17:00 – 21:30","星期三: 11:15 – 14:00, 17:00 – 21:30","星期四: 11:15 – 14:00, 17:00 – 21:30","星期五: 11:15 – 14:00, 17:00 – 21:30","星期六: 11:15 – 14:00, 17:00 – 21:30","星期日: 11:15 – 14:00, 17:00 – 21:30",,https://maps.google.com/?cid=15515066500272374443,2,
MOVE Restaurant 𝄞 Bar-台北美食 東區美食 大安區美食 台北酒吧 東區酒吧 大安區酒吧 忠孝復興酒吧 台北水煙 東區水煙 大安區水煙,106台灣台北市大安區復興南路一段107巷5弄21號,4.9,658,25.0443396,121.5453129,+886 2 2731 0102,星期一: 18:00 – 02:00,星期二: 18:00 – 02:00,星期三: 18:00 – 02:00,星期四: 18:00 – 02:00,星期五: 18:00 – 03:00,星期六: 18:00 – 03:00,星期日: 18:00 – 02:00,,https://maps.google.com/?cid=11361832120002884550,,
水礦 Restaurant & Cafe,106台灣台北市大安區大安路一段19巷4號1樓,4.3,363,25.0443679,121.5463966,+886 908 790 805,星期一: 休息,"星期二: 11:30 – 15:00, 17:00 – 22:00","星期三: 11:30 – 15:00, 17:00 – 22:00","星期四: 11:30 – 15:00, 17:00 – 22:00","星期五: 11:30 – 15:00, 17:00 – 22:00",星期六: 11:30 – 22:00,星期日: 11:30 – 21:00,,https://maps.google.com/?cid=6318746472679537218,2,
My Other Place Restaurant &Bar 我的家餐廳酒吧,"1樓, No. 303號復興北路松山區台北市台灣 10544",4.4,329,25.0582671,121.5444028,+886 2 2718 7826,星期一: 18:00 – 02:00,星期二: 18:00 – 02:00,星期三: 18:00 – 02:00,星期四: 18:00 – 02:00,星期五: 18:00 – 02:00,星期六: 18:00 – 02:00,星期日: 休息,,https://maps.google.com/?cid=3749543388255195163,2,
bar & restaurant a³ 新義式餐廳,110台灣台北市信義區松仁路28號1F,3.9,290,25.0396219,121.567641,+886 2 8729 2866,星期一: 11:00 – 21:30,星期二: 11:00 – 21:30,星期三: 11:00 – 21:30,星期四: 11:00 – 21:30,星期五: 11:00 – 22:00,星期六: 11:00 – 22:00,星期日: 11:00 – 21:30,,https://maps.google.com/?cid=13290057269971827212,,
すき家 SUKIYA 南京三民店,105台灣台北市松山區南京東路五段163號,3.9,708,25.0516505,121.5626318,+886 80 003 1131,星期一: 24 小時營業,星期二: 24 小時營業,星期三: 24 小時營業,星期四: 24 小時營業,星期五: 24 小時營業,星期六: 24 小時營業,星期日: 24 小時營業,,https://maps.google.com/?cid=1304163163954949953,1,
魚菜居酒屋,105台灣台北市松山區南京東路五段250巷5-2號,4.3,406,25.0502857,121.5659881,+886 2 2767 2929,星期一: 18:00 – 01:00,星期二: 18:00 – 01:00,星期三: 18:00 – 01:00,星期四: 18:00 – 01:00,星期五: 18:00 – 02:00,星期六: 18:00 – 02:00,星期日: 休息,,https://maps.google.com/?cid=11181290417669754382,2,
吳留手串燒居酒屋-本店,10491台灣台北市中山區八德路二段312巷13號,4.3,948,25.0467615,121.5429926,+886 2 2776 1008,星期一: 18:00 – 01:00,星期二: 18:00 – 01:00,星期三: 18:00 – 01:00,星期四: 18:00 – 01:00,星期五: 18:00 – 23:30,星期六: 18:00 – 01:00,星期日: 18:00 – 01:00,,https://maps.google.com/?cid=12768359992732942867,3,
信居酒屋,105台灣台北市松山區市民大道五段七號,4.7,68,25.0454516,121.558164,,星期一: 休息,星期二: 18:00 – 00:00,星期三: 18:00 – 00:00,星期四: 18:00 – 00:00,星期五: 18:00 – 00:00,星期六: 18:00 – 00:00,星期日: 18:00 – 00:00,,https://maps.google.com/?cid=2809845516820352686,,
涓邸居酒屋,115台灣台北市南港區三重路32巷8號,4.2,382,25.0560555,121.6144222,+886 2 2783 2022,"星期一: 11:30 – 14:00, 17:30 – 21:30","星期二: 11:30 – 14:00, 17:30 – 21:30","星期三: 11:30 – 14:00, 17:30 – 21:30","星期四: 11:30 – 14:00, 17:30 – 21:30","星期五: 11:30 – 14:00, 17:30 – 21:30",星期六: 17:30 – 21:30,星期日: 17:30 – 21:30,,https://maps.google.com/?cid=7237427141031535832,2,
雷鳥居酒屋,114台灣台北市內湖區瑞光路284號,4.5,469,25.0758855,121.5752034,+886 2 2627 7173,星期一: 18:00 – 00:00,星期二: 18:00 – 00:00,星期三: 18:00 – 00:00,星期四: 18:00 – 00:00,星期五: 18:00 – 00:00,星期六: 18:00 – 00:00,星期日: 休息,,https://maps.google.com/?cid=2750367996966086593,,
饗食天堂 台北信義店,110台灣台北市信義區松壽路12號ATT 4 FUN百貨6樓,4.2,4695,25.03531,121.5660665,+886 2 7737 5889,"星期一: 11:30 – 14:00, 14:30 – 16:30, 17:30 – 21:30","星期二: 11:30 – 14:00, 14:30 – 16:30, 17:30 – 21:30","星期三: 11:30 – 14:00, 14:30 – 16:30, 17:30 – 21:30","星期四: 11:30 – 14:00, 14:30 – 16:30, 17:30 – 21:30","星期五: 11:30 – 14:00, 14:30 – 16:30, 17:30 – 21:30","星期六: 11:30 – 14:00, 14:30 – 16:30, 17:30 – 21:30","星期日: 11:30 – 14:00, 14:30 – 16:30, 17:30 – 21:30",TRUE,https://maps.google.com/?cid=1143981965851870293,2,
永心鳳茶 微風信義店,"3樓, No. 68號忠孝東路五段信義區台北市台灣 110",4,2252,25.040505,121.5669081,+886 2 2723 3028,星期一: 11:00 – 21:30,星期二: 11:00 – 21:30,星期三: 11:00 – 21:30,星期四: 11:00 – 22:00,星期五: 11:00 – 22:00,星期六: 11:00 – 22:00,星期日: 11:00 – 21:30,FALSE,https://maps.google.com/?cid=7655000046287075253,2,
饗印印度料理Khanakhazana halal restaurant,110台灣台北市信義區基隆路一段366號1樓,4.4,1064,25.0353548,121.5606352,+886 2 8786 9366,"星期一: 11:30 – 14:30, 17:30 – 22:00","星期二: 11:30 – 14:30, 17:30 – 22:00","星期三: 11:30 – 14:30, 17:30 – 22:00","星期四: 11:30 – 14:30, 17:30 – 22:00","星期五: 11:30 – 14:30, 17:30 – 22:00","星期六: 11:30 – 14:30, 17:30 – 22:00","星期日: 11:30 – 14:30, 17:30 – 22:00",TRUE,https://maps.google.com/?cid=4977549087574711045,2,
Salt and Stone,110台灣台北市信義區市府路45號4樓,4.3,2036,25.0335001,121.5641804,+886 2 8101 8177,"星期一: 11:30 – 14:00, 17:30 – 21:30","星期二: 11:30 – 14:00, 17:30 – 21:30","星期三: 11:30 – 14:00, 17:30 – 21:30","星期四: 11:30 – 14:00, 17:30 – 21:30","星期五: 11:30 – 14:00, 17:30 – 21:30","星期六: 11:30 – 14:00, 17:30 – 21:30","星期日: 11:30 – 14:00, 17:30 – 21:30",,https://maps.google.com/?cid=6540587389450439197,,
旺芳茶餐廳,11073台灣台北市信義區松仁路58號b3,3.9,637,25.0367179,121.5681308,+886 2 8786 0670,星期一: 11:00 – 22:00,星期二: 11:00 – 22:00,星期三: 11:00 – 22:00,星期四: 11:00 – 22:00,星期五: 11:00 – 22:00,星期六: 11:00 – 22:00,星期日: 11:00 – 22:00,,https://maps.google.com/?cid=17978077515512053164,,
廣東紅燒牛肉麵,114台灣台北市內湖區東湖路35號,3.8,251,25.068921,121.6138279,,星期一: 17:00 – 03:00,星期二: 17:00 – 03:00,星期三: 17:00 – 03:00,星期四: 17:00 – 03:00,星期五: 17:00 – 03:00,星期六: 17:00 – 03:00,星期日: 17:00 – 03:00,FALSE,https://maps.google.com/?cid=8179228634132384817,,
太陽蕃茄拉麵 誠品信義店,110台灣台北市信義區松高路11號B2,4.1,821,25.0397197,121.5658739,+886 2 8780 6882,星期一: 11:00 – 22:00,星期二: 11:00 – 22:00,星期三: 11:00 – 22:00,星期四: 11:00 – 22:00,星期五: 11:00 – 22:30,星期六: 11:00 – 22:30,星期日: 11:00 – 22:00,TRUE,https://maps.google.com/?cid=12193528005752095356,2,
爭鮮迴轉壽司 松山店,110台灣台北市信義區松山路11號,3.7,925,25.0493066,121.5791866,+886 2 2748 1998,星期一: 11:00 – 21:30,星期二: 11:00 – 21:30,星期三: 11:00 – 21:30,星期四: 11:00 – 21:30,星期五: 11:00 – 21:30,星期六: 11:00 – 21:30,星期日: 11:00 – 21:30,,https://maps.google.com/?cid=4336975730015613176,2,
洋城義大利餐廳-內湖家樂福店,114台灣台北市內湖區民善街88號,4.3,742,25.0602505,121.5746303,+886 2 2790 3908,星期一: 11:00 – 22:00,星期二: 11:00 – 22:00,星期三: 11:00 – 22:00,星期四: 11:00 – 22:00,星期五: 11:00 – 22:00,星期六: 11:00 – 22:00,星期日: 11:00 – 22:00,,https://maps.google.com/?cid=10692013774683389344,2,
捌伍添第 85TD Chinese Restaurant,110台灣台北市信義區信義路五段7號85 樓,4.4,559,25.0338619,121.5644734,+886 2 8101 0085,"星期一: 12:00 – 14:30, 18:00 – 22:00","星期二: 12:00 – 14:30, 18:00 – 22:00","星期三: 12:00 – 14:30, 18:00 – 22:00","星期四: 12:00 – 14:30, 18:00 – 22:00","星期五: 12:00 – 14:30, 18:00 – 22:00","星期六: 12:00 – 14:30, 18:00 – 22:00","星期日: 12:00 – 14:30, 18:00 – 22:00",,https://maps.google.com/?cid=15147764917225651211,,
老司機居酒屋,115台灣台北市南港區南港路一段257號,4.1,293,25.0547386,121.6100746,+886 2 2651 1026,星期一: 18:00 – 00:00,星期二: 18:00 – 00:00,星期三: 18:00 – 00:00,星期四: 18:00 – 00:00,星期五: 18:00 – 00:00,星期六: 18:00 – 00:00,星期日: 休息,,https://maps.google.com/?cid=14506698047786235553,,
定食8 汐止遠雄店,221台灣新北市汐止區新台五路一段97號,4.2,1085,25.0619806,121.6483357,+886 2 2697 1030,星期一: 11:00 – 21:30,星期二: 11:00 – 21:30,星期三: 11:00 – 21:30,星期四: 11:00 – 21:30,星期五: 11:00 – 21:30,星期六: 11:00 – 21:30,星期日: 11:00 – 21:30,,https://maps.google.com/?cid=106237582842913903,2,
食裡亭牛肉麵,114台灣台北市內湖區康樂街162巷13號,3.9,148,25.0730567,121.6189088,+886 2 2634 2075,星期一: 17:30 – 21:30,星期二: 17:30 – 21:30,星期三: 17:30 – 21:30,星期四: 17:30 – 21:30,星期五: 17:30 – 21:30,星期六: 17:30 – 21:30,星期日: 休息,,https://maps.google.com/?cid=9073952479414794910,2,
すき家 SUKIYA 葫洲店,114台灣台北市內湖區康寧路三段18-1號,3.8,1633,25.0723897,121.6074364,+886 80 003 1131,星期一: 24 小時營業,星期二: 24 小時營業,星期三: 24 小時營業,星期四: 24 小時營業,星期五: 24 小時營業,星期六: 24 小時營業,星期日: 24 小時營業,,https://maps.google.com/?cid=9608515243854552260,1,
竹村居酒屋,115台灣台北市南港區中坡北路76巷2號,4,319,25.047343,121.5809089,+886 2 2782 1971,星期一: 17:00 – 00:00,星期二: 17:00 – 00:00,星期三: 17:00 – 00:00,星期四: 17:00 – 00:00,星期五: 17:00 – 00:00,星期六: 17:00 – 00:00,星期日: 17:00 – 00:00,,https://maps.google.com/?cid=13249508693306463292,2,
福建牛肉麵,221台灣新北市汐止區新台五路一段168號,3.5,229,25.0621621,121.6538064,+886 2 2643 1693,星期一: 11:00 – 22:00,星期二: 休息,星期三: 11:00 – 22:00,星期四: 11:00 – 22:00,星期五: 11:00 – 22:00,星期六: 11:00 – 22:00,星期日: 11:00 – 22:00,,https://maps.google.com/?cid=12118812267747713578,,
the Diner 樂子信義旗艦店,110台灣台北市信義區松壽路12號,4,3227,25.035347,121.5660706,+886 2 7737 5055,星期一: 10:00 – 20:30,星期二: 10:00 – 20:30,星期三: 10:00 – 20:30,星期四: 10:00 – 20:30,星期五: 10:00 – 20:30,星期六: 09:00 – 20:30,星期日: 09:00 – 20:30,,https://maps.google.com/?cid=11761449697884804652,2,
合 居酒屋,105台灣台北市松山區新東街6巷4號,4.8,196,25.0573493,121.5663927,+886 2 2761 1030,星期一: 17:00 – 23:00,星期二: 17:00 – 23:00,星期三: 17:00 – 23:00,星期四: 17:00 – 23:00,星期五: 17:00 – 23:00,星期六: 17:00 – 23:00,星期日: 17:00 – 23:00,,https://maps.google.com/?cid=6200242293987817353,,
銘記越南美食,221台灣新北市汐止區康寧街536-1號,4.2,3758,25.0696223,121.6353008,+886 2 2692 7015,星期一: 休息,星期二: 11:00 – 21:00,星期三: 11:00 – 21:00,星期四: 11:00 – 21:00,星期五: 11:00 – 21:00,"星期六: 11:00 – 15:00, 16:30 – 21:00","星期日: 11:00 – 15:00, 16:30 – 21:30",TRUE,https://maps.google.com/?cid=6296618467692847452,2,
紅燒牛肉麵,105台灣台北市松山區饒河街,3,21,25.0503137,121.5730383,,星期一: 11:00 – 01:00,星期二: 11:00 – 01:00,星期三: 11:00 – 01:00,星期四: 11:00 – 01:00,星期五: 11:00 – 01:00,星期六: 11:00 – 01:00,星期日: 11:00 – 01:00,,https://maps.google.com/?cid=14638411490823295304,,
云記茶餐廳,"58號B3F, 松仁路信義區台北市台灣 110",,,25.0368737,121.5679503,,星期一: 11:00 – 21:30,星期二: 11:00 – 21:30,星期三: 11:00 – 21:30,星期四: 11:00 – 21:30,星期五: 11:00 – 22:00,星期六: 11:00 – 22:00,星期日: 11:00 – 22:00,FALSE,https://maps.google.com/?cid=9103036246335667302,,
紅花鐵板燒 101旗艦店,110台灣台北市信義區市府路45號,3.6,767,25.0340654,121.5639746,+886 2 8101 8102,"星期一: 11:30 – 14:30, 17:30 – 21:30","星期二: 11:30 – 14:30, 17:30 – 21:30","星期三: 11:30 – 14:30, 17:30 – 21:30","星期四: 11:30 – 14:30, 17:30 – 21:30","星期五: 11:30 – 14:30, 17:30 – 22:00","星期六: 11:30 – 14:30, 17:30 – 22:00","星期日: 11:30 – 14:30, 17:30 – 21:30",,https://maps.google.com/?cid=16563118969395345279,3,
竹村居酒屋(南京店),105台灣台北市松山區南京東路五段250巷18弄12號,4.4,125,25.050084,121.566748,+886 900 672 178,星期一: 休息,星期二: 17:00 – 00:00,星期三: 17:00 – 00:00,星期四: 17:00 – 00:00,星期五: 17:00 – 01:00,星期六: 17:00 – 01:00,星期日: 休息,,https://maps.google.com/?cid=7790813383257812033,,
松果院子 Restaurant Pinecone,105台灣台北市松山區富錦街449號,4.2,1789,25.0609466,121.5615693,+886 2 2765 0386,星期一: 11:00 – 21:00,星期二: 11:00 – 21:00,星期三: 11:00 – 21:00,星期四: 11:00 – 21:00,星期五: 11:00 – 21:00,星期六: 11:00 – 21:00,星期日: 11:00 – 21:00,TRUE,https://maps.google.com/?cid=4384635665620557196,2,
台北君悅酒店 雲錦中餐廳(單點烤鴨暫無供應) Yun Jin Chinese Restaurant,110台灣台北市信義區松壽路2號2樓,4.2,399,25.0351749,121.5622935,+886 2 2720 1230,"星期一: 11:30 – 14:00, 18:00 – 21:00","星期二: 11:30 – 14:00, 18:00 – 21:00","星期三: 11:30 – 14:00, 18:00 – 21:00","星期四: 11:30 – 14:00, 18:00 – 21:00","星期五: 11:30 – 14:00, 18:00 – 21:30","星期六: 11:30 – 14:00, 18:00 – 21:30","星期日: 11:30 – 14:00, 18:00 – 21:00",TRUE,https://maps.google.com/?cid=18041038500229980517,,
餃子樂 信義店,110台灣台北市信義區忠孝東路五段59號,4,779,25.041389,121.566686,+886 2 2765 7721,"星期一: 11:30 – 14:30, 16:30 – 20:30","星期二: 11:30 – 14:30, 16:30 – 20:30","星期三: 11:30 – 14:30, 16:30 – 20:30","星期四: 11:30 – 14:30, 16:30 – 20:30","星期五: 11:30 – 14:30, 16:30 – 20:30",星期六: 11:30 – 20:30,星期日: 休息,,https://maps.google.com/?cid=15626691606087444598,2,
民生牛肉麵,105台灣台北市松山區三民路180巷49號,4.9,101,25.0626837,121.5651479,+886 980 698 818,星期一: 休息,"星期二: 11:00 – 14:00, 16:00 – 20:00","星期三: 11:00 – 14:00, 16:00 – 20:00","星期四: 11:00 – 14:00, 16:00 – 20:00","星期五: 11:00 – 14:00, 16:00 – 20:00","星期六: 11:00 – 14:00, 16:00 – 20:00","星期日: 11:00 – 14:00, 16:00 – 20:00",,https://maps.google.com/?cid=6946023768187081554,,
欣葉小聚 南港店,115台灣台北市南港区经贸二路166號A棟 中國信託金融園區 1樓號,4.1,1533,25.0585875,121.6160754,+886 2 2785 1819,"星期一: 11:00 – 14:30, 17:00 – 21:00","星期二: 11:00 – 14:30, 17:00 – 21:00","星期三: 11:00 – 14:30, 17:00 – 21:00","星期四: 11:00 – 14:30, 17:00 – 21:00","星期五: 11:00 – 14:30, 17:00 – 21:00","星期六: 11:00 – 14:30, 17:00 – 21:00","星期日: 11:00 – 14:30, 17:00 – 21:00",,https://maps.google.com/?cid=3702502844456360793,2,
臺北市雙層餐車,110台灣台北市信義區忠孝東路五段68-2號,3.4,53,25.0409818,121.5669469,+886 2 8791 6557,星期一: 休息,"星期二: 14:00 – 15:30, 17:00 – 18:30, 19:30 – 21:00","星期三: 14:00 – 15:30, 17:00 – 18:30, 19:30 – 21:00","星期四: 14:00 – 15:30, 17:00 – 18:30, 19:30 – 21:00","星期五: 14:00 – 15:30, 17:00 – 18:30, 19:30 – 21:00","星期六: 14:00 – 15:30, 17:00 – 18:30, 19:30 – 21:00","星期日: 14:00 – 15:30, 17:00 – 18:30, 19:30 – 21:00",,https://maps.google.com/?cid=1516081034610559091,,
TGI FRIDAYS 星期五美式餐廳 中壢餐廳,320台灣桃園市中壢區中園路二段501號4樓,4.1,1771,25.0016279,121.2285567,+886 3 468 0020,星期一: 11:00 – 22:00,星期二: 11:00 – 22:00,星期三: 11:00 – 22:00,星期四: 11:00 – 22:00,星期五: 11:00 – 22:30,星期六: 11:00 – 22:30,星期日: 11:00 – 22:00,,https://maps.google.com/?cid=16166297255143848640,,
馬友友印度廚房桃園店 Mayur Indian Kitchen Taoyuan MIK-11,330台灣桃園市桃園區中正路953號,4.8,1614,25.0129888,121.2998277,+886 3 355 5228,"星期一: 11:30 – 15:00, 17:00 – 22:00",星期二: 休息,"星期三: 11:30 – 15:00, 17:00 – 22:00","星期四: 11:30 – 15:00, 17:00 – 22:00","星期五: 11:30 – 15:00, 17:00 – 22:00","星期六: 11:30 – 15:00, 16:00 – 22:00","星期日: 11:30 – 15:00, 16:30 – 22:00",TRUE,https://maps.google.com/?cid=14054330288121317991,,
擇食居酒屋,200台灣基隆市仁愛區孝一路23巷1弄2號,4.3,1459,25.1285641,121.7401525,+886 2 2427 2222,星期一: 17:30 – 01:00,星期二: 17:30 – 01:00,星期三: 17:30 – 01:00,星期四: 17:30 – 01:00,星期五: 17:30 – 02:00,星期六: 17:30 – 02:00,星期日: 17:30 – 01:00,,https://maps.google.com/?cid=4291192755054070363,2,
盧卡義大利餐廳,333台灣桃園市龜山區文化一路10巷42弄29號1樓,4.4,435,25.0595728,121.3694213,+886 3 327 1108,星期一: 休息,"星期二: 11:30 – 15:00, 17:30 – 22:00","星期三: 11:30 – 15:00, 17:30 – 22:00","星期四: 11:30 – 15:00, 17:30 – 22:00","星期五: 11:30 – 15:00, 17:30 – 22:00","星期六: 11:30 – 15:00, 17:30 – 22:00","星期日: 11:30 – 15:00, 17:30 – 22:00",TRUE,https://maps.google.com/?cid=8985856638710392374,,
聖托里尼海景餐廳,203台灣基隆市中山區湖海路一段18號2樓,3.9,1862,25.163981,121.7253641,+886 2 2422 6663,星期一: 11:00 – 22:30,星期二: 11:00 – 22:30,星期三: 11:00 – 22:30,星期四: 11:00 – 22:30,星期五: 11:00 – 22:30,星期六: 11:00 – 22:30,星期日: 11:00 – 22:30,TRUE,https://maps.google.com/?cid=17919581857615903773,2,
藏壽司 中壢站前店,"3樓, No. 51號中正路中壢區桃園市台灣 320",4.1,4338,24.9541156,121.2240366,+886 3 426 9305,星期一: 11:00 – 22:00,星期二: 11:00 – 22:00,星期三: 11:00 – 22:00,星期四: 11:00 – 22:00,星期五: 11:00 – 22:00,星期六: 11:00 – 22:00,星期日: 11:00 – 22:00,FALSE,https://maps.google.com/?cid=2015503899881515155,2,
可薩橄欖油手作料理 Francesco's Italian Restaurant,338台灣桃園市蘆竹區新興街71號,4.8,1021,25.0099598,121.2725302,+886 3 302 9989,"星期一: 11:30 – 15:00, 17:30 – 22:00","星期二: 11:30 – 15:00, 17:30 – 22:00","星期三: 11:30 – 15:00, 17:30 – 22:00","星期四: 11:30 – 15:00, 17:30 – 22:00","星期五: 11:30 – 15:00, 17:30 – 22:00",星期六: 11:30 – 22:00,星期日: 11:30 – 22:00,TRUE,https://maps.google.com/?cid=10511768257087408499,2,
すき家 SUKIYA 板橋府中店,220台灣新北市板橋區中山路一段118-1號,4,1430,25.0104226,121.4631101,+886 80 003 1131,星期一: 24 小時營業,星期二: 24 小時營業,星期三: 24 小時營業,星期四: 24 小時營業,星期五: 24 小時營業,星期六: 24 小時營業,星期日: 24 小時營業,,https://maps.google.com/?cid=17487437720101725340,1,
港都熱炒 中和總店,235台灣新北市中和區大勇街12號10號,4.3,1575,24.9926285,121.517261,+886 2 2940 6751,星期一: 17:00 – 01:00,星期二: 17:00 – 01:00,星期三: 17:00 – 01:00,星期四: 17:00 – 01:00,星期五: 17:00 – 01:00,星期六: 17:00 – 01:00,星期日: 17:00 – 01:00,TRUE,https://maps.google.com/?cid=17180535215906318131,2,
Waroeng mamake (Indonesian restaurant-Halal),244台灣新北市林口區中正路422號,4.8,13,25.0778067,121.3843443,,星期一: 10:00 – 22:00,星期二: 10:00 – 22:00,星期三: 10:00 – 22:00,星期四: 10:00 – 22:00,星期五: 10:00 – 22:00,星期六: 10:00 – 22:00,星期日: 10:00 – 22:00,,https://maps.google.com/?cid=13304930606736714148,,
安打西餐廳(名人堂花園大飯店) Hit Western Restaurant,325台灣桃園市龍潭區民生路141巷150號1F,3.9,270,24.8436783,121.2287557,+886 3 499 3030,星期一: 06:30 – 02:00,星期二: 06:30 – 02:00,星期三: 06:30 – 02:00,星期四: 06:30 – 02:00,星期五: 06:30 – 02:00,星期六: 06:30 – 02:00,星期日: 06:30 – 02:00,,https://maps.google.com/?cid=9672247641787133679,,
TGI FRIDAYS 星期五美式餐廳 桃園餐廳,330台灣桃園市桃園區中正路1117號,4.1,1442,25.0174135,121.297693,+886 3 326 3579,星期一: 11:30 – 21:30,星期二: 11:30 – 21:30,星期三: 11:30 – 21:30,星期四: 11:30 – 21:30,星期五: 11:30 – 22:00,星期六: 11:30 – 22:00,星期日: 11:30 – 21:30,,https://maps.google.com/?cid=6991085711517656803,3,
清真黃牛肉麵館,100台灣台北市中正區延平南路23號,4.2,1325,25.045725,121.510765,+886 2 2331 8203,星期一: 休息,星期二: 11:00 – 19:20,星期三: 11:00 – 19:20,星期四: 11:00 – 19:20,星期五: 11:00 – 19:20,星期六: 11:00 – 19:20,星期日: 11:00 – 19:20,,https://maps.google.com/?cid=12287280161629503375,1,
"Mayur Indian kitchen - beach restaurant, MIK-9 馬友友印度廚房 - 淺水灣三芝店",252台灣新北市三芝區北勢子12-8號,4.9,910,25.2551003,121.4744181,+886 2 2636 8851,星期一: 11:00 – 21:30,星期二: 11:00 – 21:30,星期三: 11:00 – 21:30,星期四: 11:00 – 21:30,星期五: 11:00 – 21:30,星期六: 11:00 – 21:30,星期日: 11:00 – 21:30,,https://maps.google.com/?cid=14561222997775252092,,
蔬軾．農安店．創意蔬食料理．So Veg Restaurant,10491台灣台北市中山區農安街263號,4.8,1831,25.064749,121.5356863,+886 2 2509 9936,"星期一: 11:30 – 14:30, 17:30 – 21:00","星期二: 11:30 – 14:30, 17:30 – 21:00","星期三: 11:30 – 14:30, 17:30 – 21:00","星期四: 11:30 – 14:30, 17:30 – 21:00","星期五: 11:30 – 14:30, 17:30 – 21:00","星期六: 11:30 – 14:30, 17:30 – 21:00","星期日: 11:30 – 14:30, 17:30 – 21:00",TRUE,https://maps.google.com/?cid=12165230169924153337,2,
Oh my!原燒 台北林森北店,10491台灣台北市中山区林森北路123號2F,4.7,3708,25.0508364,121.5252147,+886 2 2522 1688,"星期一: 11:30 – 14:00, 17:30 – 21:00","星期二: 11:30 – 14:00, 17:30 – 21:00","星期三: 11:30 – 14:00, 17:30 – 21:00","星期四: 11:30 – 14:00, 17:30 – 21:00","星期五: 11:30 – 14:00, 17:30 – 21:00","星期六: 11:00 – 14:00, 17:00 – 21:00","星期日: 11:00 – 14:00, 17:00 – 21:00",,https://maps.google.com/?cid=11217499959942618348,2,
Desi Spices Indian Restaurant Cuisine,320台灣桃園市中壢區九和一街26號,4.7,1031,24.9614369,121.22371,+886 3 425 2799,星期一: 休息,"星期二: 11:30 – 14:30, 17:00 – 21:00","星期三: 11:30 – 14:30, 17:00 – 21:00","星期四: 11:30 – 14:30, 17:00 – 21:00","星期五: 11:30 – 14:30, 17:00 – 21:00","星期六: 11:30 – 15:00, 17:00 – 21:00","星期日: 11:30 – 15:00, 17:00 – 21:00",,https://maps.google.com/?cid=4630544960544149542,2,
濟南牛肉麵,100台灣台北市中正區濟南路二段60之3號,4.4,1845,25.0401419,121.5320879,,星期一: 11:00 – 21:00,星期二: 11:00 – 21:00,星期三: 11:00 – 21:00,星期四: 11:00 – 21:00,星期五: 11:00 – 21:00,星期六: 休息,星期日: 休息,,https://maps.google.com/?cid=12090790471825760205,2,
La Foresta Restaurant 森林義式餐廳,220台灣新北市板橋區民權路202巷24號,4.6,444,25.0170706,121.4607428,+886 2 2275 0168,"星期一: 11:00 – 15:00, 17:00 – 20:30","星期二: 11:00 – 15:00, 17:00 – 20:30","星期三: 11:00 – 15:00, 17:00 – 20:00",星期四: 休息,"星期五: 11:00 – 15:00, 17:00 – 20:30","星期六: 11:00 – 15:00, 17:00 – 20:30","星期日: 11:00 – 15:00, 17:00 – 20:30",,https://maps.google.com/?cid=10792902490256042819,,
昆明園 Kunming Islamic Restaurant,105台灣台北市松山區復興北路81巷26號,4.4,684,25.0510673,121.545166,+886 2 2751 6776,"星期一: 11:30 – 14:00, 17:30 – 21:00","星期二: 11:30 – 14:00, 17:30 – 21:00","星期三: 11:30 – 14:00, 17:30 – 21:00","星期四: 11:30 – 14:00, 17:30 – 21:00","星期五: 11:30 – 14:00, 17:30 – 21:00",星期六: 17:30 – 21:00,星期日: 17:30 – 21:00,TRUE,https://maps.google.com/?cid=5574949563295418170,2,
胖達關東煮,251台灣新北市淡水區北新路一段184巷43號,4.6,337,25.1778403,121.450841,+886 918 860 395,星期一: 休息,星期二: 16:30 – 01:30,星期三: 16:30 – 01:30,星期四: 16:30 – 01:30,星期五: 16:30 – 01:30,星期六: 休息,星期日: 16:30 – 01:30,,https://maps.google.com/?cid=1867475264556906824,1,
春餘園子,251台灣新北市淡水區36號,4.3,460,25.1926064,121.4904273,+886 2 2626 6699,星期一: 休息,"星期二: 11:30 – 14:30, 17:00 – 20:00","星期三: 11:30 – 14:30, 17:00 – 20:00",星期四: 休息,"星期五: 11:30 – 14:30, 17:00 – 20:00","星期六: 11:30 – 14:30, 17:00 – 20:00","星期日: 11:30 – 14:30, 17:00 – 20:00",TRUE,https://maps.google.com/?cid=6647957295823472675,3,
天元素食,251台灣新北市淡水區北新路三段34號,4.7,154,25.18671,121.483885,+886 976 791 836,星期一: 11:00 – 18:00,星期二: 11:00 – 18:00,星期三: 休息,星期四: 11:00 – 18:00,星期五: 11:00 – 18:00,星期六: 11:00 – 18:00,星期日: 11:00 – 18:00,TRUE,https://maps.google.com/?cid=17449293133522713266,2,
緣道觀音廟道咖啡,251台灣新北市淡水區3號,4.3,132,25.2146742,121.4868141,+886 2 2626 9242,星期一: 休息,星期二: 10:00 – 16:00,星期三: 10:00 – 16:00,星期四: 10:00 – 16:00,星期五: 10:00 – 16:00,星期六: 10:00 – 16:00,星期日: 10:00 – 16:00,TRUE,https://maps.google.com/?cid=4955015930489345298,2,
石牆仔內,25150台灣新北市淡水区3號,4.1,1537,25.1955252,121.4863875,+886 2 2621 0252,星期一: 11:00 – 19:00,星期二: 休息,星期三: 11:00 – 19:00,星期四: 11:00 – 19:00,星期五: 11:00 – 19:00,星期六: 11:00 – 19:00,星期日: 11:00 – 19:00,,https://maps.google.com/?cid=11475730313018798653,,
山珍海味,251台灣新北市淡水區北新路三段167號,4.3,447,25.1907436,121.4898651,+886 2 2621 3838,星期一: 11:00 – 21:00,星期二: 11:00 – 21:00,星期三: 休息,星期四: 11:00 – 21:00,星期五: 11:00 – 09:00,星期六: 11:00 – 09:00,星期日: 11:00 – 09:00,,https://maps.google.com/?cid=9004179899304656581,2,
偶素馬來妹,251台灣新北市淡水區北新路三段58號,4.9,15,25.1875621,121.4850428,+886 979 736 160,星期一: 休息,星期二: 休息,星期三: 10:30 – 18:00,星期四: 休息,星期五: 休息,星期六: 10:30 – 18:00,星期日: 休息,,https://maps.google.com/?cid=14775943157999916219,,
古早味炒花生手工菜脯,"No, No. 3北新路三段32巷淡水區新北市台灣 251",5,6,25.186544,121.48401,+886 935 752 168,星期一: 11:00 – 17:00,星期二: 11:00 – 17:00,星期三: 11:00 – 17:00,星期四: 11:00 – 17:00,星期五: 11:00 – 17:00,星期六: 11:00 – 17:00,星期日: 11:00 – 17:00,TRUE,https://maps.google.com/?cid=12303717236860678590,,
麥當勞-淡水新市餐廳,251台灣新北市淡水區新市一路三段151號,4.1,4281,25.1832541,121.4480215,+886 2 2620 0051,星期一: 24 小時營業,星期二: 24 小時營業,星期三: 24 小時營業,星期四: 24 小時營業,星期五: 24 小時營業,星期六: 24 小時營業,星期日: 24 小時營業,FALSE,https://maps.google.com/?cid=7651386321554630069,1,
北新莊山產城,252台灣新北市三芝區興華里田心子7之2號,4,81,25.2040979,121.499295,+886 2 2637 1251,星期一: 休息,星期二: 11:00 – 20:00,星期三: 11:00 – 20:00,星期四: 11:00 – 20:00,星期五: 11:00 – 20:00,星期六: 11:00 – 20:00,星期日: 11:00 – 20:00,,https://maps.google.com/?cid=1597645513411376607,,
愛蘭餃素餃工坊,251台灣新北市淡水區北新路三段48號,,,25.1873999,121.4845659,+886 920 338 388,"星期一: 11:00 – 14:30, 17:00 – 20:00",星期二: 11:00 – 20:00,星期三: 11:00 – 20:00,星期四: 11:00 – 20:00,星期五: 11:00 – 20:00,"星期六: 11:00 – 14:30, 17:00 – 20:00","星期日: 11:00 – 14:00, 17:00 – 20:00",,https://maps.google.com/?cid=7972720013231679680,,
金龍土雞城,252台灣新北市三芝區北新路45號,3.8,5,25.2049175,121.5020603,+886 2 2637 1465,星期一: 11:00 – 16:00,星期二: 11:00 – 16:00,星期三: 休息,星期四: 11:00 – 16:00,星期五: 11:00 – 16:00,星期六: 11:00 – 16:00,星期日: 11:00 – 16:00,,https://maps.google.com/?cid=16592004929438872704,,
早餐店,251台灣新北市淡水區北新路二段140號,4.9,9,25.1851921,121.4820358,+886 912 509 086,星期一: 05:00 – 11:00,星期二: 05:00 – 11:00,星期三: 05:00 – 11:00,星期四: 05:00 – 11:00,星期五: 05:00 – 11:00,星期六: 05:00 – 11:00,星期日: 05:00 – 11:00,,https://maps.google.com/?cid=12895400264265265667,,
北新有機休閒農場停車場,251台灣新北市淡水區6,5,1,25.1919466,121.4712898,,星期一: 11:00 – 20:00,星期二: 11:00 – 20:00,星期三: 11:00 – 20:00,星期四: 11:00 – 20:00,星期五: 11:00 – 20:00,星期六: 11:00 – 20:00,星期日: 11:00 – 20:00,,https://maps.google.com/?cid=17646151675369698992,,
Kooks 2 異嗑堂二店,251台灣新北市淡水區南勢埔32巷1號,4.4,773,25.179812,121.4842904,+886 2 2625 6610,星期一: 休息,星期二: 休息,星期三: 11:30 – 21:00,星期四: 11:30 – 21:00,星期五: 11:30 – 21:00,星期六: 11:30 – 21:00,星期日: 11:30 – 21:00,,https://maps.google.com/?cid=12582208493165102164,2,
